stop_id,stop_code,stop_name,stop_desc,stop_lat,stop_lon,zone_id,stop_url,location_type,parent_station,wheelchair_boarding
7000001,7000001,"Hobart Transit Centre, Liverpool St",, -42.884991, 147.323198,HOBC,,0,,0
7000002,7000002,"Hobart Interchange, Elizabeth St, Stop D3",, -42.882868, 147.330441,HOBC,,0,place_inthob,1
7000003,7000003,"Government House, Tasman Hwy",, -42.867599, 147.335538,HOBC,,0,,2
7000004,7000004,"Macquarie St after Campbell St",, -42.880606, 147.332802,HOBC,,0,,2
7000005,7000005,"Hobart Interchange, Collins St",, -42.882051, 147.329071,HOBC,,0,place_inthob,2
7000006,7000006,"Liverpool St opp UTAS",, -42.878953, 147.330060,HOBC,,0,,2
7000008,7000008,"St Mary's College, Harrington St",, -42.881147, 147.319955,HOBC,,0,,2
7000009,7000009,"Elizabeth College, Warwick St",, -42.878261, 147.318699,HOBC,,0,,2
7000010,7000010,"Macquarie St opp St Michael's Collegiate",, -42.888287, 147.322950,HOBC,,0,,2
7000011,7000011,"Davey St opp St Michael's Collegiate",, -42.888044, 147.325238,HOBC,,0,,1
7000012,7000012,"Davey St at Salamanca Pl, Stop A",, -42.885112, 147.328958,HOBC,,0,,1
7000014,7000014,"Davey St after Molle St",, -42.890383, 147.322202,HOBC,,0,,1
7000015,7000015,"Hobart Interchange, Macquarie St, Stop D1",, -42.883363, 147.329563,HOBC,,0,place_inthob,1
7000016,7000016,"Hobart Interchange, Macquarie St",, -42.883630, 147.328936,HOBC,,0,place_inthob,2
7000017,7000017,"Macquarie St after Barrack St",, -42.886629, 147.325051,HOBC,,0,,1
7000019,7000019,"Elizabeth St before McTavish Av",, -42.870700, 147.312496,HOBC,,0,,2
7000020,7000020,"Elizabeth St before Brisbane St",, -42.879253, 147.322698,HOBC,,0,,1
7000021,7000021,"Elizabeth St after Warwick St",, -42.878196, 147.320441,HOBC,,0,,1
7000022,7000022,"North Hobart Shops, Elizabeth St before Strahan St",, -42.872425, 147.314767,HOBC,,0,,1
7000023,7000023,"Elizabeth St at Burnett St",, -42.874339, 147.316832,HOBC,,0,,2
7000024,7000024,"Elizabeth St after Melville St",, -42.880283, 147.325078,HOBC,,0,,2
7000025,7000025,"Elizabeth St opp John St",, -42.876268, 147.318430,HOBC,,0,,1
7000026,7000026,"The Friends' School, Elizabeth St",, -42.868625, 147.312028,HOBC,,0,,1
7000027,7000027,"Elizabeth St before Warwick St",, -42.878139, 147.319997,HOBC,,0,,1
7000028,7000028,"North Hobart Shops, Elizabeth St opp Lefroy St",, -42.873337, 147.315463,HOBC,,0,,2
7000029,7000029,"Elizabeth St after Liverpool St",, -42.881094, 147.326464,HOBC,,0,,1
7000030,7000030,"Hobart Interchange, Elizabeth St, Stop A1",, -42.882616, 147.330142,HOBC,,0,place_inthob,1
7000031,7000031,"Elizabeth St at Tasma St",, -42.876064, 147.318144,HOBC,,0,,1
7000032,7000032,"Elizabeth St after Brisbane St",, -42.879120, 147.322162,HOBC,,0,,1
7000033,7000033,"Elizabeth St before Burnett St",, -42.875103, 147.317390,HOBC,,0,,1
7000034,7000034,"Elizabeth St before Lyndhurst St",, -42.870497, 147.311888,HOBC,,0,,2
7000035,7000035,"UTAS, Campbell St",, -42.878669, 147.329487,HOBC,,0,,1
7000036,7000036,"Hobart Interchange, Elizabeth St, Stop A2",, -42.882534, 147.329890,HOBC,,0,place_inthob,1
7000038,7000038,"Campbell St opp Patrick St",, -42.875623, 147.325145,HOBC,,0,,2
7000039,7000039,"Goulburn Street Primary School, Forest Rd",, -42.887817, 147.317809,HOBC,,0,,2
7000041,7000041,"Hobart Interchange, Elizabeth St, Stop B1",, -42.882403, 147.329423,HOBC,,0,place_inthob,2
7000042,7000042,"Mount Stuart Rd before Elphinstone Rd",, -42.872565, 147.310931,HOBC,,0,,2
7000043,7000043,"Lansdowne Cr opp Lansdowne Crescent Primary School",, -42.881347, 147.309785,HOBC,,0,,2
7000044,7000044,"Liverpool St before Molle St",, -42.886852, 147.321192,HOBC,,0,,2
7000045,7000045,"Forest Rd opp Goulburn Street Primary School",, -42.888461, 147.317211,HOBC,,0,,2
7000046,7000046,"William St at Goulburn St",, -42.887015, 147.312729,HOBC,,0,,2
7000047,7000047,"Mount Stuart Rd after Mellifont St",, -42.873864, 147.306684,HOBC,,0,,2
7000048,7000048,"Burnett St before Argyle St",, -42.873991, 147.318059,HOBC,,0,,2
7000049,7000049,"Elphinstone Rd at Mount Stuart Rd",, -42.872472, 147.311742,HOBC,,0,,2
7000050,7000050,"Collins St before Murray St",, -42.883630, 147.326853,HOBC,,0,,2
7000051,7000051,"Salier Cr after Gordon Av",, -42.870001, 147.298210,HOBC,,0,,2
7000053,7000053,"Liverpool St at Barrack St",, -42.885855, 147.322284,HOBC,,0,,2
7000054,7000054,"Hurst Rd before Mount Stuart Rd",, -42.872579, 147.302519,HOBC,,0,,2
7000055,7000055,"Arthur St before Crombie Lane",, -42.875980, 147.312222,HOBC,,0,,2
7000056,7000056,"Mount Stuart Rd at Mellifont Rd",, -42.874155, 147.306346,HOBC,,0,,2
7000057,7000057,"Newdegate St after Lochner St",, -42.875346, 147.310366,HOBC,,0,,2
7000058,7000058,"Lochner St at Newdegate St",, -42.875287, 147.310897,HOBC,,0,,2
7000060,7000060,"Hobart Interchange, Liverpool St, Stop L1",, -42.881158, 147.327454,HOBC,,0,place_inthob,2
7000061,7000061,"Argyle St opp Royal Hobart Hospital",, -42.879890, 147.327939,HOBC,,0,,2
7000062,7000062,"Forest Rd opp William St",, -42.889157, 147.314423,HOBC,,0,,2
7000063,7000063,"Federal St after Elizabeth St",, -42.871425, 147.315242,HOBC,,0,,2
7000064,7000064,"Federal St before Elizabeth St",, -42.871767, 147.314863,HOBC,,0,,2
7000065,7000065,"Lansdowne Crescent Primary School, Lansdowne Cr",, -42.881499, 147.309614,HOBC,,0,,2
7000066,7000066,"Lansdowne Cr before Hill St",, -42.879764, 147.310859,HOBC,,0,,2
7000067,7000067,"Lansdowne Cr after Hill St",, -42.879945, 147.310782,HOBC,,0,,2
7000068,7000068,"Hill St before Hamilton St",, -42.878218, 147.310193,HOBC,,0,,2
7000069,7000069,"Raymont Tce at Byard St",, -42.872458, 147.304400,HOBC,,0,,2
7000070,7000070,"Raymont Tce after Byard St",, -42.872494, 147.304090,HOBC,,0,,2
7000071,7000071,"Gordon Av after Benjafield Tce",, -42.870877, 147.304221,HOBC,,0,,2
7000072,7000072,"Gordon Av before Darling Pde",, -42.871399, 147.305313,HOBC,,0,,2
7000073,7000073,"Cavell St after Bathurst St",, -42.886629, 147.313918,HOBC,,0,,2
7000074,7000074,"Cavell St before Hill St",, -42.885444, 147.316017,HOBC,,0,,2
7000075,7000075,"Mount Stuart Rd opp Byard St",, -42.873760, 147.304082,HOBC,,0,,2
7000076,7000076,"Hill St before Lansdowne Cr",, -42.883997, 147.315067,HOBC,,0,,2
7000077,7000077,"Lansdowne Cr opp Patrick St",, -42.883807, 147.314513,HOBC,,0,,2
7000078,7000078,"Mount Stuart Rd at Hurst Rd",, -42.873119, 147.301946,HOBC,,0,,2
7000079,7000079,"Mount Stuart Rd at Hooper Cr",, -42.873347, 147.302802,HOBC,,0,,2
7000080,7000080,"Mount Stuart Rd opp Esk Av",, -42.873555, 147.300207,HOBC,,0,,2
7000081,7000081,"Lansdowne Cr opp Bonnington Rd",, -42.883987, 147.312032,HOBC,,0,,2
7000082,7000082,"Mount Stuart Rd after Esk Av",, -42.873358, 147.300437,HOBC,,0,,2
7000083,7000083,"Lansdowne Cr at Poets Rd",, -42.884061, 147.311790,HOBC,,0,,2
7000084,7000084,"Mount Stuart Rd at Weerona Av",, -42.873818, 147.298759,HOBC,,0,,2
7000085,7000085,"Lansdowne Cr at Warwick St",, -42.882866, 147.310135,HOBC,,0,,2
7000086,7000086,"Liverpool St after Murray St",, -42.882869, 147.325585,HOBC,,0,,2
7000087,7000087,"Davey St at Salamanca Pl, Stop B",, -42.884831, 147.329308,HOBC,,0,,2
7000089,7000089,"Elizabeth St before Bathurst St",, -42.880970, 147.326199,HOBC,,0,,2
7000090,7000090,"Mellifont St opp Friends Park",, -42.877014, 147.307890,HOBC,,0,,2
7000091,7000091,"Gordon Av after Montagu St",, -42.870193, 147.301357,HOBC,,0,,2
7000092,7000092,"Gordon Av before Montagu St",, -42.870101, 147.301466,HOBC,,0,,2
7000093,7000093,"Campbell St after Brisbane St",, -42.877292, 147.327509,HOBC,,0,,2
7000094,7000094,"Argyle St after Brisbane St",, -42.877704, 147.324900,HOBC,,0,,2
7000095,7000095,"St David's Park, Sandy Bay Rd",, -42.886731, 147.328283,HOBC,,0,,2
7000096,7000096,"Sandy Bay Rd opp St David's Park",, -42.887001, 147.328442,HOBC,,0,,2
7000097,7000097,"Argyle St after Patrick St",, -42.876615, 147.323350,HOBC,,0,,2
7000098,7000098,"North Hobart Oval, Argyle St",, -42.868677, 147.315173,HOBC,,0,,2
7000099,7000099,"Frederick St at Forest Rd",, -42.888834, 147.314982,HOBC,,0,,2
7000100,7000100,"Argyle St at Yardley St",, -42.869549, 147.315536,HOBC,,0,,2
7000101,7000101,"Goulburn St after Molle St",, -42.886863, 147.319240,HOBC,,0,,2
7000102,7000102,"Argyle St opp North Hobart Oval",, -42.867687, 147.314350,HOBC,,0,,2
7000103,7000103,"Goulburn St before Molle St",, -42.886718, 147.319195,HOBC,,0,,2
7000104,7000104,"Hobart Interchange, Elizabeth St, Stop A3",, -42.882289, 147.329419,HOBC,,0,place_inthob,2
7000106,7000106,"Hobart Interchange, Macquarie St, Stop D2",, -42.883025, 147.330099,HOBC,,0,place_inthob,2
7000107,7000107,"Argyle St after Tasma St",, -42.874409, 147.320254,HOBC,,0,,2
7000108,7000108,"Campbell Street Primary School, Campbell St",, -42.873876, 147.322706,HOBC,,0,,2
7000109,7000109,"Soundy Park, Argyle St",, -42.872914, 147.318786,HOBC,,0,,2
7000110,7000110,"Barrack St after Liverpool St",, -42.885813, 147.322888,HOBC,,0,,2
7000111,7000111,"Argyle St before Federal St",, -42.871135, 147.316791,HOBC,,0,,2
7000112,7000112,"Argyle St after Yardley St",, -42.870561, 147.316465,HOBC,,0,,2
7000113,7000113,"Burnett St before Elizabeth St",, -42.874395, 147.317793,HOBC,,0,,2
7000114,7000114,"Lansdowne Cr opp Warwick St",, -42.883216, 147.310300,HOBC,,0,,2
7000115,7000115,"Friends Park, Mellifont St",, -42.876924, 147.307981,HOBC,,0,,2
7000116,7000116,"Hill St at Hamilton St",, -42.878475, 147.310225,HOBC,,0,,2
7000117,7000117,"Liverpool St at Harrington St",, -42.883853, 147.324457,HOBC,,0,,2
7000118,7000118,"Hobart Interchange, Macquarie St, Stop C1",, -42.883032, 147.329723,HOBC,,0,place_inthob,2
7000119,7000119,"Brooke Street Pier",, -42.885026, 147.332870,HOBC,,0,,0
7000123,7000123,"Hobart Interchange, Elizabeth St, Stop D4",, -42.883038, 147.331092,HOBC,,0,place_inthob,1
7004001,7004001,"Macquarie St before Ispahan Av",, -42.891242, 147.319142,HOBC,,0,,2
7004002,7004002,"410 Strickland Av",, -42.909290, 147.267179,HOBC,,0,,1
7004003,7004003,"Strickland Av opp Smithurst Av",, -42.897915, 147.289411,HOBC,,0,,1
7004004,7004004,"Strickland Av at Smithurst Av",, -42.898114, 147.288831,HOBC,,0,,1
7004005,7004005,"407 Huon Rd",, -42.898263, 147.303827,HOBC,,0,,1
7004006,7004006,"406 Huon Rd",, -42.898835, 147.305666,HOBC,,0,,1
7004007,7004007,"63 Strickland Av",, -42.898123, 147.286405,HOBC,,0,,1
7004008,7004008,"74 Strickland Av",, -42.898703, 147.284695,HOBC,,0,,1
7004009,7004009,"113 Strickland Av",, -42.900467, 147.281862,HOBC,,0,,1
7004010,7004010,"116 Strickland Av",, -42.900721, 147.281821,HOBC,,0,,1
7004011,7004011,"Davey St at Romilly St",, -42.899365, 147.312512,HOBC,,0,,1
7004012,7004012,"Macquarie St opp South Hobart Primary School",, -42.893810, 147.311403,HOBC,,0,,1
7004013,7004013,"South Hobart Primary School, Macquarie St",, -42.893690, 147.311277,HOBC,,0,,1
7004014,7004014,"Huon Rd opp Livingston St",, -42.899298, 147.309553,HOBC,,0,,1
7004015,7004015,"Huon Rd at Livingston St",, -42.899520, 147.309424,HOBC,,0,,1
7004016,7004016,"Macquarie St before D'Arcy St",, -42.894480, 147.309593,HOBC,,0,,1
7004017,7004017,"Macquarie St after Glen St",, -42.894424, 147.309356,HOBC,,0,,1
7004018,7004018,"Cascade Rd opp St John's Hospital",, -42.894983, 147.306903,HOBC,,0,,1
7004019,7004019,"Cascade Rd after Apsley St",, -42.895405, 147.303419,HOBC,,0,,1
7004020,7004020,"Cascade Rd after Congress St",, -42.895545, 147.303595,HOBC,,0,,1
7004021,7004021,"Cascade Rd opp Badminton Centre",, -42.895331, 147.299416,HOBC,,0,,1
7004022,7004022,"Badminton Centre, Cascade Rd",, -42.895117, 147.299541,HOBC,,0,,1
7004023,7004023,"Cascade Rd opp Cascade Gardens",, -42.895861, 147.295982,HOBC,,0,,1
7004024,7004024,"Cascade Gardens, Cascade Rd",, -42.895735, 147.295780,HOBC,,0,,1
7004025,7004025,"Cascade Rd opp Cascade Brewery",, -42.896717, 147.292348,HOBC,,0,,1
7004026,7004026,"opp 443 Huon Rd",, -42.898529, 147.300972,HOBC,,0,,1
7004027,7004027,"Huon Rd at Grayling Av",, -42.900507, 147.297542,HOBC,,0,,1
7004028,7004028,"Huon Rd before Hillborough Rd",, -42.900395, 147.296094,HOBC,,0,,1
7004029,7004029,"Strickland Av after Woodlyn Ct",, -42.901905, 147.279864,HOBC,,0,,1
7004030,7004030,"486 Huon Rd",, -42.901353, 147.295165,HOBC,,0,,1
7004031,7004031,"Marlyn Rd after Avon Rd",, -42.896818, 147.281510,HOBC,,0,,1
7004032,7004032,"Marlyn Rd before Jubilee Rd",, -42.896716, 147.281368,HOBC,,0,,1
7004033,7004033,"Marlyn Rd before Avon Rd",, -42.896618, 147.282975,HOBC,,0,,1
7004034,7004034,"Saunders Cr before Meagher Ct",, -42.898719, 147.279255,HOBC,,0,,1
7004035,7004035,"156 Strickland Av",, -42.903112, 147.277193,HOBC,,0,,1
7004036,7004036,"511 Huon Rd",, -42.904015, 147.287363,HOBC,,0,,1
7004037,7004037,"opp 156 Strickland Av",, -42.902882, 147.277258,HOBC,,0,,1
7004038,7004038,"Huon Rd opp Turnip Fields Rd",, -42.905081, 147.280514,HOBC,,0,,1
7004039,7004039,"Huon Rd at Turnip Fields Rd",, -42.905409, 147.280149,HOBC,,0,,1
7004040,7004040,"Huon Rd opp Strickland Av",, -42.912524, 147.269237,HOBC,,0,,1
7004041,7004041,"Huon Rd at Strickland Av",, -42.913103, 147.268757,HOBC,,0,,1
7004042,7004042,"186 Strickland Av",, -42.901076, 147.274712,HOBC,,0,,1
7004043,7004043,"opp 186 Strickland Av",, -42.901133, 147.275361,HOBC,,0,,1
7004044,7004044,"Marlyn Rd after Strickland Av",, -42.899340, 147.276539,HOBC,,0,,1
7004045,7004045,"338 Strickland Av",, -42.905672, 147.268085,HOBC,,0,,1
7004046,7004046,"398 Strickland Av",, -42.908216, 147.266237,HOBC,,0,,1
7004047,7004047,"418 Strickland Av",, -42.910565, 147.267826,HOBC,,0,,1
7004048,7004048,"opp 416 Strickland Av",, -42.910390, 147.267564,HOBC,,0,,1
7004049,7004049,"Strickland Av at Huon Rd",, -42.912820, 147.268675,HOBC,,0,,1
7004050,7004050,"Strickland Av before Huon Rd",, -42.912618, 147.268641,HOBC,,0,,1
7004051,7004051,"Saunders Cr before Moree Cl",, -42.899922, 147.278967,HOBC,,0,,1
7004052,7004052,"Saunders Cr before Marlyn Rd",, -42.900010, 147.276236,HOBC,,0,,1
7004053,7004053,"Strickland Av before Marlyn Rd",, -42.899380, 147.274959,HOBC,,0,,1
7004054,7004054,"Strickland Av after Inglewood Rd",, -42.901915, 147.270563,HOBC,,0,,1
7004055,7004055,"Strickland Av before Inglewood Rd",, -42.902002, 147.270424,HOBC,,0,,1
7004056,7004056,"335 Strickland Av",, -42.904081, 147.269319,HOBC,,0,,1
7004057,7004057,"opp 337 Strickland Av",, -42.904327, 147.269051,HOBC,,0,,1
7004058,7004058,"Davey St after Southern Outlet",, -42.893404, 147.317164,HOBC,,0,,1
7004059,7004059,"Macquarie St after Southern Outlet",, -42.892585, 147.316444,HOBC,,0,,1
7004060,7004060,"Macquarie St opp Elboden St",, -42.892710, 147.315387,HOBC,,0,,1
7004061,7004061,"Antill St after Davey St",, -42.891717, 147.321194,HOBC,,0,,2
7004062,7004062,"Davey St after Anglesea St",, -42.895936, 147.314215,HOBC,,0,,1
7004063,7004063,"Davey St before Anglesea St",, -42.895928, 147.314599,HOBC,,0,,1
7004064,7004064,"Macquarie St before Weld St",, -42.893238, 147.313729,HOBC,,0,,1
7004065,7004065,"Macquarie St after Weld St",, -42.893152, 147.313455,HOBC,,0,,1
7004066,7004066,"Sandy Bay Rd before Hampden Rd",, -42.888674, 147.330277,HOBC,,0,,1
7004067,7004067,"Antill St before Davey St",, -42.891903, 147.321244,HOBC,,0,,2
7004068,7004068,"Albuera Street Primary School, Sandy Bay Rd",, -42.891083, 147.328144,HOBC,,0,,1
7004069,7004069,"Davey St after Wentworth St",, -42.898616, 147.312550,HOBC,,0,,1
7004070,7004070,"Cascade Brewery, Cascade Rd",, -42.896531, 147.292260,HOBC,,0,,1
7004071,7004071,"443 Huon Rd",, -42.898510, 147.300748,HOBC,,0,,1
7004072,7004072,"opp 511 Huon Rd",, -42.904229, 147.287396,HOBC,,0,,1
7004073,7004073,"Marlyn Rd opp Saunders Cr",, -42.898312, 147.278942,HOBC,,0,,1
7004074,7004074,"Davey St before Elboden St",, -42.893816, 147.315868,HOBC,,0,,1
7004075,7004075,"opp 406 Strickland Av",, -42.909099, 147.266896,HOBC,,0,,1
7004076,7004076,"St John's Hospital, Cascade Rd",, -42.895131, 147.306859,HOBC,,0,,1
7004077,7004077,"Strickland Av before Woodlyn Ct",, -42.901747, 147.279911,HOBC,,0,,1
7004078,7004078,"202 Strickland Av",, -42.900168, 147.274765,HOBC,,0,,1
7004079,7004079,"Sandy Bay Rd at Hampden Rd",, -42.889508, 147.330175,HOBC,,0,,1
7005001,7005001,"The Hutchins School, Nelson Rd, Middle School",, -42.905037, 147.329960,HOBC,,0,,1
7005002,7005002,"Mount Carmel College, Sandy Bay Rd",, -42.901494, 147.333022,HOBC,,0,,1
7005003,7005003,"UTAS, French St",, -42.903319, 147.323477,HOBC,,0,,1
7005004,7005004,"The Hutchins School, Nelson Rd, Senior School",, -42.905320, 147.329940,HOBC,,0,,1
7005005,7005005,"York St before Grosvenor St",, -42.899778, 147.326777,HOBC,,0,,1
7005006,7005006,"York St after Regent St",, -42.899800, 147.325862,HOBC,,0,,1
7005007,7005007,"York St after Sandy Bay Rd",, -42.899142, 147.329435,HOBC,,0,,1
7005008,7005008,"York St at Sandy Bay Rd",, -42.898989, 147.329549,HOBC,,0,,1
7005009,7005009,"Alexander St after Regent St",, -42.902417, 147.322985,HOBC,,0,,1
7005010,7005010,"Mount Carmel College, Nelson Rd",, -42.902552, 147.332810,HOBC,,0,,1
7005011,7005011,"View St before Proctors Rd",, -42.902040, 147.319652,HOBC,,0,,1
7005012,7005012,"French St after Alexander St",, -42.903105, 147.320574,HOBC,,0,,1
7005013,7005013,"Nelson Rd opp Mount Carmel College",, -42.902528, 147.333110,HOBC,,0,,1
7005014,7005014,"Churchill Av before McAulay Rd",, -42.912227, 147.336212,HOBC,,0,,1
7005015,7005015,"Churchill Av opp McAulay Rd",, -42.912582, 147.336774,HOBC,,0,,1
7005016,7005016,"Sandy Bay Rd opp Sandy Bay Infant School",, -42.910317, 147.349908,HOBC,,0,,1
7005017,7005017,"Long Beach, Sandy Bay Rd",, -42.913627, 147.356408,HOBC,,0,,1
7005018,7005018,"Churchill Av after Red Chapel Av",, -42.914493, 147.342164,HOBC,,0,,2
7005019,7005019,"Fahan School, Sandy Bay Rd",, -42.912156, 147.353196,HOBC,,0,,1
7005020,7005020,"Sandy Bay Rd opp Alexandra Battery Park",, -42.916027, 147.358859,HOBC,,0,,1
7005021,7005021,"Churchill Av at Red Chapel Av",, -42.914958, 147.343065,HOBC,,0,,2
7005022,7005022,"Churchill Av before Ascot Av",, -42.916718, 147.345160,HOBC,,0,,1
7005023,7005023,"Sandy Bay Rd opp Long Beach",, -42.913645, 147.356104,HOBC,,0,,1
7005024,7005024,"Sandy Bay Rd opp O'Conor Ct",, -42.921216, 147.360084,HOBC,,0,,1
7005025,7005025,"Churchill Av after Nicholas Dr",, -42.917520, 147.347675,HOBC,,0,,1
7005026,7005026,"Sandy Bay Rd before Churchill Av",, -42.917986, 147.359125,HOBC,,0,,1
7005027,7005027,"Sandy Bay Rd before Mitah Cr",, -42.923822, 147.360528,HOBC,,0,,1
7005028,7005028,"Churchill Av after Ascot Av",, -42.916648, 147.345276,HOBC,,0,,1
7005029,7005029,"King St opp Parliament Street Reserve",, -42.895624, 147.322286,HOBC,,0,,1
7005030,7005030,"UTAS, Sandy Bay Rd",, -42.899522, 147.330309,HOBC,,0,,1
7005031,7005031,"Sandy Bay Rd opp Mount Carmel College",, -42.901373, 147.333173,HOBC,,0,,1
7005032,7005032,"Regent St after Lord St",, -42.898815, 147.324152,HOBC,,0,,1
7005033,7005033,"Parliament Street Reserve, King St",, -42.895452, 147.322476,HOBC,,0,,1
7005034,7005034,"Regent St at Duke St",, -42.898068, 147.324063,HOBC,,0,,1
7005035,7005035,"King St at Lasswade Av",, -42.896462, 147.320073,HOBC,,0,,1
7005036,7005036,"Wrest Point, Sandy Bay Rd",, -42.903017, 147.336069,HOBC,,0,,1
7005037,7005037,"King St before Parliament St",, -42.896063, 147.320347,HOBC,,0,,1
7005038,7005038,"UTAS, Churchill Av, TUSA Building",, -42.902384, 147.325268,HOBC,,0,,1
7005039,7005039,"UTAS, Churchill Av, Chemistry Building",, -42.902654, 147.325299,HOBC,,0,,1
7005040,7005040,"King St after Pillinger St",, -42.897124, 147.318827,HOBC,,0,,1
7005041,7005041,"King St opp Pillinger St",, -42.897706, 147.318346,HOBC,,0,,1
7005042,7005042,"Sandy Bay Rd opp Wrest Point",, -42.903308, 147.336220,HOBC,,0,,1
7005043,7005043,"Sandy Bay Rd opp Waimea Av",, -42.905295, 147.339327,HOBC,,0,,1
7005044,7005044,"UTAS, Churchill Av, Life Sciences Building",, -42.904836, 147.325766,HOBC,,0,,1
7005045,7005045,"UTAS, Churchill Av, School of Humanities",, -42.904947, 147.326152,HOBC,,0,,1
7005046,7005046,"Princes Street Primary School, Proctors Rd",, -42.898992, 147.317106,HOBC,,0,,1
7005047,7005047,"Sandy Bay Rd after Ethelmont Rd",, -42.905180, 147.338829,HOBC,,0,,1
7005048,7005048,"Sandy Bay Rd after Maning Av",, -42.907450, 147.343410,HOBC,,0,,1
7005049,7005049,"Proctors Rd at Reynold Ct",, -42.901021, 147.317082,HOBC,,0,,1
7005050,7005050,"Churchill Av before Goodhart Pl",, -42.908441, 147.331352,HOBC,,0,,1
7005051,7005051,"Proctors Rd opp Reynolds Ct",, -42.900945, 147.317224,HOBC,,0,,1
7005052,7005052,"Churchill Av after Derwentwater Av",, -42.908760, 147.332580,HOBC,,0,,1
7005053,7005053,"Sandy Bay Rd after Mawhera Av",, -42.907649, 147.343387,HOBC,,0,,1
7005054,7005054,"Sandy Bay Infant School, Sandy Bay Rd",, -42.909515, 147.348445,HOBC,,0,,1
7005055,7005055,"Churchill Av opp Waimea Heights Primary School",, -42.910675, 147.334314,HOBC,,0,,1
7005056,7005056,"Proctors Rd at View St",, -42.902035, 147.318511,HOBC,,0,,1
7005057,7005057,"Proctors Rd opp View St",, -42.902155, 147.318432,HOBC,,0,,1
7005058,7005058,"Sandy Bay Rd after Lipscombe Av",, -42.908907, 147.346491,HOBC,,0,,1
7005059,7005059,"Sandy Bay Rd opp Fahan School",, -42.911978, 147.353234,HOBC,,0,,1
7005060,7005060,"Waimea Heights Primary School, Churchill Av",, -42.910591, 147.334400,HOBC,,0,,1
7005061,7005061,"Churchill Av opp Fahan School",, -42.918715, 147.350128,HOBC,,0,,1
7005062,7005062,"Sandy Bay Rd at O'Conor Ct",, -42.921234, 147.359904,HOBC,,0,,1
7005063,7005063,"Churchill Av at Lipscombe Av",, -42.917457, 147.347931,HOBC,,0,,1
7005064,7005064,"Pearces Park, Sandy Bay Rd",, -42.927013, 147.360769,HOBC,,0,,1
7005065,7005065,"Fahan School, Churchill Av",, -42.918137, 147.349356,HOBC,,0,,1
7005066,7005066,"Churchill Av at Hatton Gdns",, -42.919641, 147.353492,HOBC,,0,,1
7005067,7005067,"Sandy Bay Rd at Pauldon Dr",, -42.924736, 147.360086,HOBC,,0,,1
7005068,7005068,"Churchill Av opp Hatton Gdns",, -42.919509, 147.353449,HOBC,,0,,1
7005069,7005069,"Sandy Bay Rd before Pearces Park",, -42.927950, 147.359802,HOBC,,0,,1
7005070,7005070,"Churchill Av before Sonning Cr",, -42.916763, 147.357646,HOBC,,0,,1
7005071,7005071,"Churchill Av at Coolabah Rd",, -42.917505, 147.355451,HOBC,,0,,1
7005072,7005072,"Churchill Av before Sandy Bay Rd",, -42.917135, 147.358346,HOBC,,0,,1
7005073,7005073,"Sandy Bay Rd opp Magnet Ct",, -42.895351, 147.327507,HOBC,,0,,1
7005074,7005074,"Sandy Bay Rd opp Duke St",, -42.897472, 147.329029,HOBC,,0,,1
7005075,7005075,"Regent St before Fitzroy Pl",, -42.893682, 147.322579,HOBC,,0,,1
7005076,7005076,"Regent St before Queen St",, -42.894090, 147.322868,HOBC,,0,,1
7005077,7005077,"Sandy Bay Rd at Duke St",, -42.897104, 147.328661,HOBC,,0,,1
7005078,7005078,"Sandy Bay Rd opp UTAS",, -42.899640, 147.330708,HOBC,,0,,1
7005079,7005079,"Regent St after Princes St",, -42.896577, 147.323436,HOBC,,0,,1
7005080,7005080,"Sandy Bay Rd opp Albuera Street Primary School",, -42.892335, 147.326297,HOBC,,0,,1
7005081,7005081,"Sandy Bay Rd after Queen St",, -42.893714, 147.325727,HOBC,,0,,1
7005082,7005082,"Sandy Bay Rd at Magnet Ct",, -42.895316, 147.327842,HOBC,,0,,1
7005083,7005083,"Proctors Rd opp Princes Street Primary School",, -42.899142, 147.316845,HOBC,,0,,1
7005084,7005084,"Churchill Av before Dalkeith Ct",, -42.913606, 147.340868,HOBC,,0,,1
7005085,7005085,"Cartwright Point Reserve, Sandy Bay Rd",, -42.929821, 147.359609,HOBC,,0,,1
7005086,7005086,"Churchill Av opp Coolabah Rd",, -42.917579, 147.355605,HOBC,,0,,1
7007001,7007001,"Hobart College, services to Hobart City",, -42.918109, 147.317640,HOBC,,0,,1
7007002,7007002,"Hobart College, services to Kingston",, -42.918021, 147.317877,HOBC,,0,,1
7007003,7007003,"Hobart College, services to Channel",, -42.917872, 147.318520,HOBC,,0,,1
7007004,7007004,"Mount Nelson Signal Station, Nelson Rd",, -42.924627, 147.342643,HOBC,,0,,1
7007005,7007005,"Woodcutters Rd opp Pulchella Dr",, -42.909440, 147.305412,HOBC,,0,,1
7007006,7007006,"Nelson Rd before Bligh Ct",, -42.925537, 147.331800,HOBC,,0,,1
7007007,7007007,"Nelson Rd at Broughton Av",, -42.926193, 147.333813,HOBC,,0,,1
7007008,7007008,"Nelson Rd at Richmond Pde",, -42.907978, 147.328133,HOBC,,0,,1
7007009,7007009,"Woodcutters Rd before Hillcrest Rd",, -42.907404, 147.306354,HOBC,,0,,1
7007010,7007010,"Olinda Gr opp Hobart College",, -42.917832, 147.319218,HOBC,,0,,1
7007011,7007011,"opp 104 Woodcutters Rd",, -42.906443, 147.309560,HOBC,,0,,1
7007012,7007012,"Hobart College, Olinda Gr",, -42.918474, 147.319964,HOBC,,0,,1
7007013,7007013,"116 Nelson Rd",, -42.909134, 147.327569,HOBC,,0,,1
7007014,7007014,"145 Nelson Rd",, -42.909119, 147.327248,HOBC,,0,,1
7007015,7007015,"154 Nelson Rd",, -42.909146, 147.326172,HOBC,,0,,1
7007016,7007016,"opp 156 Nelson Rd",, -42.909294, 147.326474,HOBC,,0,,1
7007017,7007017,"opp 221 Nelson Rd",, -42.909910, 147.325978,HOBC,,0,,1
7007018,7007018,"221 Nelson Rd",, -42.910032, 147.326049,HOBC,,0,,1
7007019,7007019,"220 Nelson Rd",, -42.910888, 147.326023,HOBC,,0,,1
7007020,7007020,"235 Nelson Rd",, -42.910801, 147.326113,HOBC,,0,,1
7007021,7007021,"The Hutchins School, Churchill Av after Nelson Rd",, -42.906885, 147.329304,HOBC,,0,,1
7007022,7007022,"The Hutchins School, Churchill Av at Nelson Rd",, -42.906234, 147.328419,HOBC,,0,,1
7007023,7007023,"295 Nelson Rd",, -42.912384, 147.325599,HOBC,,0,,1
7007024,7007024,"298 Nelson Rd",, -42.912221, 147.325625,HOBC,,0,,1
7007025,7007025,"Nelson Rd opp Nelson Cl",, -42.924327, 147.327132,HOBC,,0,,1
7007026,7007026,"Nelson Rd at Nelson Cl",, -42.924148, 147.327162,HOBC,,0,,1
7007027,7007027,"Nelson Rd at Hargrave Pl",, -42.926066, 147.333875,HOBC,,0,,1
7007028,7007028,"Nelson Rd after Hargrave Pl",, -42.926672, 147.337196,HOBC,,0,,1
7007029,7007029,"651 Nelson Rd",, -42.925764, 147.339400,HOBC,,0,,1
7007030,7007030,"Nelson Rd before Pauline Av",, -42.911885, 147.322761,HOBC,,0,,1
7007031,7007031,"Nelson Rd after Pauline Av",, -42.911798, 147.322489,HOBC,,0,,1
7007032,7007032,"Mount Nelson Primary School, Nelson Rd",, -42.913851, 147.323608,HOBC,,0,,1
7007033,7007033,"Nelson Rd opp Mount Nelson Primary School",, -42.914094, 147.323690,HOBC,,0,,1
7007034,7007034,"Nelson Rd opp Avondale Gr",, -42.915931, 147.324183,HOBC,,0,,1
7007035,7007035,"Nelson Rd at Avondale Gr",, -42.916048, 147.324028,HOBC,,0,,1
7007036,7007036,"Nelson Rd at Rialannah Rd",, -42.919344, 147.323837,HOBC,,0,,1
7007037,7007037,"Nelson Rd before Olinda Gr",, -42.921053, 147.322955,HOBC,,0,,1
7007038,7007038,"Nelson Rd after Olinda Gr",, -42.920960, 147.323163,HOBC,,0,,1
7007039,7007039,"Woodcutters Rd opp Old Proctors Rd",, -42.914533, 147.307926,HOBC,,0,,1
7007040,7007040,"Woodcutters Rd opp Hakea Dr",, -42.914828, 147.307686,HOBC,,0,,1
7007041,7007041,"Woodcutters Rd at Pulchella Dr",, -42.909822, 147.305875,HOBC,,0,,1
7007042,7007042,"Nelson Rd opp Richmond Pde",, -42.908055, 147.328031,HOBC,,0,,1
7007048,7007048,"Hobart College, route 458 and X58",, -42.918296, 147.317455,HOBC,,0,,1
7008001,7008001,"Hobart City High School, New Town Rd",, -42.853575, 147.300737,HOBC,,0,,0
7008002,7008002,"Argyle St opp The Friends' School",, -42.865968, 147.312791,HOBC,,0,,1
7008003,7008003,"New Town Rd before Cross St",, -42.859101, 147.304995,HOBC,,0,,1
7008005,7008005,"New Town Rd after Stoke St",, -42.865226, 147.310932,HOBC,,0,,1
7008006,7008006,"New Town Rd at Sunnyside Rd",, -42.863145, 147.310917,HOBC,,0,,1
7008007,7008007,"New Town Rd at Roope St",, -42.859611, 147.306151,HOBC,,0,,1
7008009,7008009,"New Town Rd before Hobart City High School",, -42.853060, 147.300362,HOBC,,0,,1
7008010,7008010,"New Town Rd opp Hobart Netball and Sports Centre",, -42.851810, 147.298978,HOBC,,0,,1
7008012,7008012,"New Town Rd before Pirie St",, -42.861409, 147.309729,HOBC,,0,,1
7008013,7008013,"New Town Plaza, New Town Rd",, -42.856243, 147.303778,HOBC,,0,,2
7008014,7008014,"New Town Rd after Pedder St",, -42.861234, 147.309102,HOBC,,0,,1
7008016,7008016,"Hobart Netball and Sports Centre, New Town Rd",, -42.851723, 147.298663,HOBC,,0,,0
7008017,7008017,"New Town Rd before Stoke St",, -42.865052, 147.310709,HOBC,,0,,0
7008018,7008018,"New Town Rd after Augusta Rd",, -42.867291, 147.311471,HOBC,,0,,0
7008019,7008019,"New Town Rd opp New Town Plaza",, -42.856424, 147.303661,HOBC,,0,,0
7008020,7008020,"Douglas St opp Oakley St",, -42.864135, 147.301723,HOBC,,0,,0
7008021,7008021,"Baker St before Giblin St",, -42.862814, 147.297098,HOBC,,0,,0
7008022,7008022,"Oakley St before Clare St",, -42.861705, 147.302172,HOBC,,0,,0
7008023,7008023,"Ruth Dr after Susan Pde",, -42.866616, 147.284817,HOBC,,0,,0
7008024,7008024,"Queens Walk opp Cornelian Bay",, -42.854958, 147.318778,HOBC,,0,,0
7008025,7008025,"Forster St opp New Town Primary School",, -42.856881, 147.302058,HOBC,,0,,0
7008026,7008026,"Kalang Av after Alcides Av",, -42.861834, 147.278122,HOBC,,0,,0
7008027,7008027,"Carlton St after Sorell St",, -42.862856, 147.299676,HOBC,,0,,0
7008028,7008028,"Forster St before Noble Dr",, -42.859869, 147.297808,HOBC,,0,,0
7008029,7008029,"Bealey Av after Athleen Av",, -42.863825, 147.284841,HOBC,,0,,0
7008030,7008030,"Girrabong Rd before Baldwin Pl",, -42.859225, 147.278575,HOBC,,0,,0
7008031,7008031,"Athleen Av after Shirley Bvd",, -42.865480, 147.285635,HOBC,,0,,0
7008032,7008032,"Stratton Av after Baldwin Pl",, -42.859605, 147.277898,HOBC,,0,,0
7008033,7008033,"Ruth Dr before Judith Dr",, -42.870606, 147.283985,HOBC,,0,,0
7008034,7008034,"Doyle Av before Pottery Rd",, -42.867238, 147.288501,HOBC,,0,,0
7008035,7008035,"Pottery Rd opp Copley Rd",, -42.871811, 147.285390,HOBC,,0,,0
7008036,7008036,"Forster St after Noble Dr",, -42.859922, 147.297436,HOBC,,0,,0
7008037,7008037,"Girrabong Rd opp Yelgun Pl",, -42.861751, 147.280678,HOBC,,0,,0
7008038,7008038,"15 Stratton Av",, -42.860964, 147.277582,HOBC,,0,,0
7008039,7008039,"Athleen Av before Bealey Av",, -42.863825, 147.285966,HOBC,,0,,0
7008040,7008040,"Girrabong Rd before Kalang Av",, -42.861496, 147.280171,HOBC,,0,,0
7008041,7008041,"Baker St before Meredith St",, -42.862705, 147.297093,HOBC,,0,,0
7008042,7008042,"Bellevue Pde before Oldham Av",, -42.855317, 147.316444,HOBC,,0,,0
7008043,7008043,"New Town Primary School, Forster St",, -42.856876, 147.301820,HOBC,,0,,0
7008044,7008044,"Bellevue Pde after Bay Rd",, -42.854400, 147.310976,HOBC,,0,,0
7008045,7008045,"Pottery Rd after Ruth Dr",, -42.872651, 147.284513,HOBC,,0,,0
7008046,7008046,"Park St before Bay Rd",, -42.855187, 147.309610,HOBC,,0,,0
7008047,7008047,"Shirley Bvd after Bealey Av",, -42.865481, 147.284051,HOBC,,0,,0
7008048,7008048,"Pottery Rd opp Ruth Dr",, -42.873103, 147.284084,HOBC,,0,,0
7008049,7008049,"Cornelian Bay, Queens Walk",, -42.854604, 147.319043,HOBC,,0,,0
7008050,7008050,"Queens Walk at Stainforth Ct",, -42.851346, 147.316037,HOBC,,0,,0
7008051,7008051,"Rugby Park, Queens Walk",, -42.850647, 147.315030,HOBC,,0,,0
7008052,7008052,"Bellevue Pde before Bay Rd",, -42.854515, 147.310843,HOBC,,0,,0
7008053,7008053,"93 Pottery Rd",, -42.870213, 147.286138,HOBC,,0,,0
7008054,7008054,"Giblin St before William Cooper Dr",, -42.861730, 147.296738,HOBC,,0,,0
7008055,7008055,"Oakley St after Douglas St",, -42.863682, 147.301830,HOBC,,0,,0
7008056,7008056,"Glenrose Park, Pottery Rd",, -42.871282, 147.286033,HOBC,,0,,0
7008057,7008057,"Doyle Av after Pottery Rd",, -42.867109, 147.288793,HOBC,,0,,0
7008058,7008058,"Hockey Centre, Bellevue Pde",, -42.855079, 147.315842,HOBC,,0,,0
7008059,7008059,"Augusta Rd after Creek Rd",, -42.862944, 147.289875,HOBC,,0,,0
7008060,7008060,"Lenah Valley Rd opp John Turnbull Park",, -42.862847, 147.288080,HOBC,,0,,0
7008061,7008061,"Park St after Harbroe Av",, -42.856683, 147.310591,HOBC,,0,,0
7008062,7008062,"Clare St before Oakley St",, -42.861594, 147.302619,HOBC,,0,,0
7008063,7008063,"Park St opp Harbroe Av",, -42.856415, 147.310260,HOBC,,0,,0
7008064,7008064,"Lenah Valley Rd after Athleen Av",, -42.862402, 147.287030,HOBC,,0,,0
7008065,7008065,"Lenah Valley Rd before Athleen Av",, -42.862237, 147.287126,HOBC,,0,,0
7008066,7008066,"Park St after Risdon Rd",, -42.854223, 147.308904,HOBC,,0,,0
7008067,7008067,"Park St before Risdon Rd",, -42.854181, 147.308663,HOBC,,0,,0
7008068,7008068,"Lenah Valley Rd at Girrabong Rd",, -42.862907, 147.282523,HOBC,,0,,0
7008069,7008069,"Lenah Valley Rd opp Girrabong Rd",, -42.863075, 147.282623,HOBC,,0,,0
7008070,7008070,"Queens Walk Oval, Risdon Rd",, -42.851813, 147.310522,HOBC,,0,,0
7008071,7008071,"Risdon Rd opp Queens Walk Oval",, -42.851456, 147.310523,HOBC,,0,,0
7008072,7008072,"Lenah Valley Rd after Rangeview Cr",, -42.864573, 147.280998,HOBC,,0,,0
7008073,7008073,"Lenah Valley Rd before Rangeview Cr",, -42.864721, 147.281044,HOBC,,0,,0
7008074,7008074,"The Friends' School, Argyle St",, -42.866349, 147.313481,HOBC,,0,,0
7008075,7008075,"Augusta Rd at Westminster Av",, -42.867252, 147.307998,HOBC,,0,,0
7008076,7008076,"Augusta Rd opp Westminster Av",, -42.867470, 147.308352,HOBC,,0,,0
7008077,7008077,"Calvary Hospital, Augusta Rd",, -42.866587, 147.304491,HOBC,,0,,0
7008078,7008078,"Stoke St before Argyle St",, -42.863795, 147.313401,HOBC,,0,,0
7008079,7008079,"Augusta Rd opp Calvary Hospital",, -42.866695, 147.304302,HOBC,,0,,0
7008080,7008080,"Park St opp Stoke St",, -42.862607, 147.314842,HOBC,,0,,0
7008081,7008081,"Stoke St at Park St",, -42.862926, 147.314640,HOBC,,0,,0
7008082,7008082,"Augusta Rd after Newlands Av",, -42.866632, 147.302109,HOBC,,0,,0
7008083,7008083,"Augusta Rd after Montagu St",, -42.866446, 147.301586,HOBC,,0,,0
7008084,7008084,"Clare St before Seymour St",, -42.865655, 147.309149,HOBC,,0,,0
7008085,7008085,"Clare St after Hildern St",, -42.865820, 147.309134,HOBC,,0,,0
7008086,7008086,"Park St after Oldham Av",, -42.861091, 147.313357,HOBC,,0,,0
7008087,7008087,"Park St before Oldham Av",, -42.860728, 147.313314,HOBC,,0,,0
7008088,7008088,"Lenah Valley Shops, Augusta Rd after Giblin St",, -42.865534, 147.296014,HOBC,,0,,1
7008089,7008089,"Lenah Valley Shops, Augusta Rd before Giblin St",, -42.865756, 147.296159,HOBC,,0,,0
7008090,7008090,"Clare St before Fraser St",, -42.864451, 147.307250,HOBC,,0,,0
7008091,7008091,"Park St before Woodlands Av",, -42.859744, 147.312502,HOBC,,0,,0
7008092,7008092,"Clare St before Honora Av",, -42.864412, 147.306942,HOBC,,0,,0
7008093,7008093,"Augusta Rd at Edge Av",, -42.864011, 147.292388,HOBC,,0,,0
7008094,7008094,"Augusta Rd at Shawfield St",, -42.863602, 147.291964,HOBC,,0,,0
7008095,7008095,"Park St after Bishop St",, -42.857963, 147.311226,HOBC,,0,,0
7008096,7008096,"Sacred Heart College, Clare St",, -42.862492, 147.304237,HOBC,,0,,0
7008097,7008097,"Park St at Bishop St",, -42.858236, 147.311611,HOBC,,0,,0
7008098,7008098,"Clare St opp Sacred Heart College",, -42.862598, 147.304120,HOBC,,0,,0
7008099,7008099,"Ancanthe Park, Lenah Valley Rd",, -42.865687, 147.278942,HOBC,,0,,0
7008100,7008100,"Giblin St before Doyle Av",, -42.867396, 147.295067,HOBC,,0,,0
7008101,7008101,"Giblin St after Doyle Av",, -42.867347, 147.294861,HOBC,,0,,0
7008102,7008102,"Doyle Av before Rosehill Cr",, -42.867206, 147.292216,HOBC,,0,,0
7008103,7008103,"Augusta Rd at Clare St",, -42.867592, 147.310722,HOBC,,0,,0
7008104,7008104,"Augusta Rd after Clare St",, -42.867722, 147.310569,HOBC,,0,,0
7008105,7008105,"Stratton Av at Girrabong Rd",, -42.860250, 147.279180,HOBC,,0,,0
7008106,7008106,"Susan Pde after Ruth Dr",, -42.865916, 147.284452,HOBC,,0,,0
7008107,7008107,"Ruth Dr after Jane Ct",, -42.867551, 147.285090,HOBC,,0,,0
7008108,7008108,"25 Ruth Dr",, -42.868379, 147.285019,HOBC,,0,,0
7008109,7008109,"Ruth Dr after Judith Dr",, -42.870863, 147.284110,HOBC,,0,,0
7008110,7008110,"Giblin St after William Cooper Dr",, -42.861299, 147.296676,HOBC,,0,,0
7008111,7008111,"Stoke St after Argyle St",, -42.864221, 147.312314,HOBC,,0,,0
7008112,7008112,"Kalang Av opp Lumeah Av",, -42.862154, 147.276011,HOBC,,0,,0
7008113,7008113,"Doyle Av after Rosehill Cr",, -42.867331, 147.292257,HOBC,,0,,0
7008122,7008122,"New Town Rd opp Hobart City High School",, -42.854107, 147.301556,HOBC,,0,,1
7009001,7009001,"Main Rd after Florence St",, -42.849783, 147.297372,HOBC,,0,,0
7009002,7009002,"Main Rd opp Johnston St",, -42.837470, 147.288277,HOBC,,0,,0
7009003,7009003,"Moonah Shops, Main Rd before Albert Rd",, -42.847315, 147.295484,HOBC,,0,,0
7009004,7009004,"Main Rd at Springfield Av, Stop B",, -42.839679, 147.289227,HOBC,,0,place_intder,0
7009005,7009005,"Main Rd after Birdwood Av",, -42.843358, 147.292624,HOBC,,0,,0
7009007,7009007,"Main Rd at Florence St",, -42.849550, 147.297018,HOBC,,0,,0
7009008,7009008,"Moonah Shops, Main Rd before Hopkins St",, -42.846619, 147.294726,HOBC,,0,,0
7009009,7009009,"Main Rd opp Birdwood Av",, -42.843093, 147.292224,HOBC,,0,,0
7009010,7009010,"Main Rd after Johnston St",, -42.837179, 147.287868,HOBC,,0,,0
7009011,7009011,"Main Rd after Springfield Av",, -42.839113, 147.289365,HOBC,,0,,1
7009013,7009013,"Brooker Hwy at Bowen Rd",, -42.843108, 147.306570,HOBC,,0,,0
7009014,7009014,"Brooker Hwy at Lampton Av",, -42.833075, 147.297050,HOBC,,0,,0
7009015,7009015,"Goodwood Primary School, Brooker Hwy",, -42.831330, 147.293804,HOBC,,0,,0
7009016,7009016,"Brooker Hwy after Lampton Av",, -42.834315, 147.299392,HOBC,,0,,1
7009017,7009017,"Brooker Hwy after Bowen Rd",, -42.844174, 147.307795,HOBC,,0,,0
7009018,7009018,"Brooker Hwy opp Goodwood Primary School",, -42.830638, 147.292743,HOBC,,0,,0
7009019,7009019,"Main Rd at Springfield Av, Stop A",, -42.839871, 147.289357,HOBC,,0,place_intder,0
7009020,7009020,"Florence St opp Sinclair Av",, -42.850705, 147.293736,HOBC,,0,,0
7009021,7009021,"Albert Rd opp Moonah Arts Centre",, -42.847941, 147.295165,HOBC,,0,,0
7009022,7009022,"Apex Park, Risdon Rd",, -42.848291, 147.313133,HOBC,,0,,0
7009023,7009023,"O'Grady Av before Derwent Park Rd",, -42.837767, 147.304212,HOBC,,0,,0
7009024,7009024,"Ash St before Lennox Av",, -42.836581, 147.311555,HOBC,,0,,0
7009025,7009025,"Lennox Av before Risdon Rd",, -42.846238, 147.313067,HOBC,,0,,0
7009026,7009026,"Ashbolt Cr after Chestnut Av",, -42.843277, 147.312065,HOBC,,0,,0
7009027,7009027,"Ashbolt Cr before Chestnut Av",, -42.843244, 147.312416,HOBC,,0,,0
7009028,7009028,"375 Brooker Hwy",, -42.840835, 147.305569,HOBC,,0,,0
7009029,7009029,"Ash St before Ashbolt Cr",, -42.837311, 147.315317,HOBC,,0,,0
7009030,7009030,"Brooker Hwy before Lampton Av",, -42.831822, 147.295639,HOBC,,0,,0
7009031,7009031,"Central Av after Derwent Park Rd",, -42.838831, 147.301938,HOBC,,0,,0
7009032,7009032,"Lennox Av after Lucinda Pde",, -42.837909, 147.310132,HOBC,,0,,0
7009033,7009033,"Cooinda Park, Springfield Av",, -42.850860, 147.280665,HOBC,,0,,0
7009034,7009034,"Ashbolt Cr after Lennox Av",, -42.843607, 147.309806,HOBC,,0,,0
7009035,7009035,"Caversham Rd after Vieste Dr",, -42.843899, 147.274239,HOBC,,0,,0
7009036,7009036,"Gerrard St after Mirool Pl",, -42.856665, 147.290458,HOBC,,0,,0
7009037,7009037,"Lennox Av opp Culloden Av",, -42.845596, 147.310960,HOBC,,0,,0
7009038,7009038,"O'Grady Av after Bowen Rd",, -42.837973, 147.307101,HOBC,,0,,0
7009039,7009039,"Michael St before Wattle Av",, -42.840353, 147.308821,HOBC,,0,,0
7009040,7009040,"Ashbolt Cr after Reece Ct",, -42.840602, 147.314400,HOBC,,0,,0
7009041,7009041,"Ashbolt Cr before Reece Ct",, -42.840605, 147.314169,HOBC,,0,,0
7009042,7009042,"Lennox Av opp Cashion Ct",, -42.838333, 147.309652,HOBC,,0,,0
7009043,7009043,"Derwent Park Rd before Gormanston Rd",, -42.838761, 147.299511,HOBC,,0,,0
7009044,7009044,"Derwent Park Rd before Central Av",, -42.838336, 147.300932,HOBC,,0,,0
7009045,7009045,"Lennox Av after Risdon Rd",, -42.846355, 147.312927,HOBC,,0,,0
7009046,7009046,"Michael St before Lennox Av",, -42.840350, 147.309012,HOBC,,0,,0
7009047,7009047,"Albert Rd before Central Av",, -42.847843, 147.301099,HOBC,,0,,0
7009048,7009048,"Central Av opp Clifford St",, -42.840740, 147.302035,HOBC,,0,,0
7009049,7009049,"Risdon Rd opp Apex Park",, -42.848479, 147.313247,HOBC,,0,,0
7009050,7009050,"O'Grady Av after Derwent Park Rd",, -42.837699, 147.304434,HOBC,,0,,0
7009051,7009051,"Charles St after Hopkins St",, -42.847451, 147.293570,HOBC,,0,,0
7009052,7009052,"Ashbolt Cr before Lennox Av",, -42.843725, 147.309733,HOBC,,0,,0
7009053,7009053,"Lennox Av after Culloden Av",, -42.845464, 147.310727,HOBC,,0,,0
7009054,7009054,"Brooker Hwy after Risdon Rd",, -42.848463, 147.310929,HOBC,,0,,0
7009055,7009055,"Brooker Hwy opp Bowen Road Primary School",, -42.847182, 147.310165,HOBC,,0,,0
7009056,7009056,"Bowen Road Primary School, Brooker Hwy",, -42.845782, 147.308425,HOBC,,0,,0
7009057,7009057,"Seventh Av at Beverley Gr",, -42.847985, 147.283064,HOBC,,0,,0
7009058,7009058,"Seventh Av before Beverley Gr",, -42.848066, 147.282857,HOBC,,0,,0
7009059,7009059,"Highfield St opp Gerrard St",, -42.856188, 147.288366,HOBC,,0,,0
7009060,7009060,"Gerrard St at Mirool Pl",, -42.856805, 147.288652,HOBC,,0,,0
7009061,7009061,"Atherton Av before Cheviot Rd",, -42.850690, 147.282793,HOBC,,0,,0
7009062,7009062,"Atherton Av after Cheviot Rd",, -42.850414, 147.282560,HOBC,,0,,0
7009063,7009063,"Ash St after Lennox Av",, -42.836439, 147.311316,HOBC,,0,,1
7009064,7009064,"60 Highfield St",, -42.855059, 147.289507,HOBC,,0,,0
7009065,7009065,"39 Highfield St",, -42.854946, 147.289816,HOBC,,0,,0
7009066,7009066,"Cheviot Rd after Atherton Av",, -42.852076, 147.283975,HOBC,,0,,0
7009067,7009067,"Highfield St after Amy St",, -42.853048, 147.290358,HOBC,,0,,0
7009068,7009068,"Highfield St before Amy St",, -42.853403, 147.290396,HOBC,,0,,0
7009069,7009069,"Cheviot Rd before Atherton Av",, -42.852057, 147.283822,HOBC,,0,,0
7009070,7009070,"Highfield St before Walch Av",, -42.851565, 147.289521,HOBC,,0,,0
7009071,7009071,"Ripley Rd after Springfield Av",, -42.853124, 147.283816,HOBC,,0,,0
7009072,7009072,"Highfield St after Walch Av",, -42.851627, 147.289668,HOBC,,0,,0
7009073,7009073,"Ripley Rd before Springfield Av",, -42.853073, 147.284092,HOBC,,0,,0
7009074,7009074,"Brooker Hwy after Derwent Park Rd",, -42.839137, 147.304308,HOBC,,0,,0
7009075,7009075,"Springfield Av before Coleman St",, -42.842011, 147.287118,HOBC,,0,,0
7009076,7009076,"Brooker Hwy before Derwent Park Rd",, -42.839975, 147.304419,HOBC,,0,,0
7009077,7009077,"Springfield Av before Homer Av",, -42.843030, 147.285413,HOBC,,0,,0
7009078,7009078,"Prince of Wales Reserve, Brooker Hwy",, -42.836161, 147.301724,HOBC,,0,,0
7009079,7009079,"Brooker Hwy opp Prince of Wales Reserve",, -42.835366, 147.300218,HOBC,,0,,0
7009080,7009080,"Springfield Av before Third Av",, -42.844529, 147.283310,HOBC,,0,,0
7009081,7009081,"Springfield Av before Fourth Av",, -42.844358, 147.283305,HOBC,,0,,1
7009082,7009082,"Gerrard St before Mirool Pl",, -42.856894, 147.290373,HOBC,,0,,0
7009083,7009083,"Seventh Av before Third Av",, -42.846112, 147.284620,HOBC,,0,,0
7009084,7009084,"Seventh Av after Third Av",, -42.846413, 147.284512,HOBC,,0,,0
7009085,7009085,"Ashbolt Cr before Ash St",, -42.837737, 147.315474,HOBC,,0,,0
7009086,7009086,"Caversham Rd opp Vieste Dr",, -42.843902, 147.273993,HOBC,,0,,0
7009087,7009087,"Central Av before Bayswater Rd",, -42.843391, 147.301982,HOBC,,0,,0
7009088,7009088,"Central Av at Bayswater Rd",, -42.842747, 147.302133,HOBC,,0,,1
7009089,7009089,"Central Av after Hopkins St",, -42.844984, 147.302052,HOBC,,0,,0
7009090,7009090,"Central Av before Hopkins St",, -42.844869, 147.302223,HOBC,,0,,1
7009091,7009091,"Benjafield Park, Central Av",, -42.846333, 147.302136,HOBC,,0,,1
7009092,7009092,"Central Av opp Benjafield Park",, -42.846742, 147.302333,HOBC,,0,,1
7009093,7009093,"Albert Rd after Central Av",, -42.848015, 147.301193,HOBC,,0,,0
7009094,7009094,"Cavendish Rd at Walch Av",, -42.850566, 147.291088,HOBC,,0,,0
7009095,7009095,"Cavendish Rd opp Camden Cr",, -42.850468, 147.291309,HOBC,,0,,0
7009096,7009096,"Springfield Av opp Cooinda Park",, -42.850961, 147.280822,HOBC,,0,,0
7009097,7009097,"Corinda Gr after Second Av",, -42.849890, 147.279283,HOBC,,0,,0
7009098,7009098,"Corinda Gr before Second Av",, -42.849742, 147.279243,HOBC,,0,,0
7009099,7009099,"Cavendish Rd after Florence St",, -42.850930, 147.292583,HOBC,,0,,0
7009100,7009100,"Cavendish Rd before Florence St",, -42.850863, 147.292706,HOBC,,0,,0
7009101,7009101,"Florence St at Sinclair Av",, -42.850859, 147.293669,HOBC,,0,,0
7009102,7009102,"Twelfth Av before Second Av",, -42.847451, 147.279502,HOBC,,0,,0
7009103,7009103,"Twelfth Av after Second Av",, -42.847430, 147.279191,HOBC,,0,,0
7009104,7009104,"Tenth Av opp Sherwood Rd",, -42.845652, 147.279697,HOBC,,0,,0
7009105,7009105,"Tenth Av after Easton Av",, -42.844361, 147.277019,HOBC,,0,,0
7009106,7009106,"Central Av before Derwent Park Rd",, -42.838929, 147.301794,HOBC,,0,,1
7009107,7009107,"Tenth Av before Easton Av",, -42.844505, 147.277019,HOBC,,0,,0
7009108,7009108,"Central Av at Clifford St",, -42.840915, 147.301875,HOBC,,0,,0
7009109,7009109,"Main Rd at Springfield Av, Stop C",, -42.839489, 147.289088,HOBC,,0,place_intder,0
7009110,7009110,"Springfield Av after Leonard Av",, -42.842396, 147.286191,HOBC,,0,,0
7009111,7009111,"Springfield Av opp Homer Av",, -42.843328, 147.284647,HOBC,,0,,0
7009112,7009112,"Sherwood Rd before Tenth Av",, -42.845900, 147.279463,HOBC,,0,,0
7009113,7009113,"O'Grady Av before Bowen Rd",, -42.837862, 147.307180,HOBC,,0,,0
7010001,7010001,"Brooker Hwy opp Wilkinsons Point",, -42.826296, 147.278414,HOBB,,0,,0
7010002,7010002,"Wilkinsons Point, Brooker Hwy",, -42.826075, 147.281003,HOBB,,0,,0
7010003,7010003,"Main Rd before Brooker Hwy",, -42.817382, 147.258775,HOBB,,0,,0
7010005,7010005,"Main Rd opp Glenorchy Primary School",, -42.830252, 147.269587,HOBBC,,0,,0
7010006,7010006,"Main Rd after Marys Hope Rd",, -42.822665, 147.264001,HOBB,,0,,0
7010007,7010007,"Main Rd opp Lorraine Cr",, -42.820765, 147.262323,HOBB,,0,,0
7010008,7010008,"Main Rd before Elwick Rd",, -42.833359, 147.278092,HOBC,,0,,0
7010009,7010009,"Main Rd opp Tilyard St",, -42.826342, 147.266667,HOBB,,0,,0
7010010,7010010,"Main Rd opp Cosgrove High School",, -42.834852, 147.284392,HOBC,,0,,0
7010011,7010011,"Main Rd before Esmond St",, -42.834067, 147.282098,HOBC,,0,,0
7010012,7010012,"Main Rd after Brooker Hwy",, -42.817342, 147.258441,HOBB,,0,,0
7010013,7010013,"Main Rd at Tilyard St",, -42.826196, 147.266348,HOBB,,0,,0
7010014,7010014,"Main Rd after Lorraine Cr",, -42.820444, 147.261539,HOBB,,0,,0
7010016,7010016,"Main Rd after Chapel St",, -42.830980, 147.269963,HOBB,,0,,1
7010017,7010017,"Glenorchy Primary School, Main Rd",, -42.829154, 147.268575,HOBB,,0,,0
7010018,7010018,"Main Rd before Marys Hope Rd",, -42.822914, 147.263968,HOBB,,0,,0
7010019,7010019,"Main Rd before Eady St",, -42.833768, 147.279615,HOBBC,,0,,0
7010020,7010020,"Main Rd opp Esmond St",, -42.834225, 147.282221,HOBC,,0,,0
7010021,7010021,"Cosgrove High School, Main Rd",, -42.834889, 147.284173,HOBC,,0,,1
7010022,7010022,"Elwick Rd before Haslemere St",, -42.829319, 147.283007,HOBC,,0,,0
7010023,7010023,"Elwick Rd after Haslemere St",, -42.829159, 147.282878,HOBC,,0,,1
7010025,7010025,"Glenorchy Interchange, Tolosa St, Stop C",, -42.833189, 147.274488,HOBBC,,0,place_intgle,0
7010026,7010026,"Glenorchy Interchange, Tolosa St, Stop D",, -42.833741, 147.274410,HOBBC,,0,place_intgle,0
7010028,7010028,"Glenorchy Interchange, Tolosa St, Stop E",, -42.833696, 147.274236,HOBBC,,0,place_intgle,0
7010030,7010030,"Glenorchy Interchange, Tolosa St, Stop G",, -42.833519, 147.274142,HOBBC,,0,place_intgle,0
7010031,7010031,"Glenorchy Interchange, Tolosa St, Stop H",, -42.833233, 147.274291,HOBBC,,0,place_intgle,0
7010032,7010032,"Glenorchy Interchange, Tolosa St, Stop J",, -42.833081, 147.274390,HOBBC,,0,place_intgle,0
7010034,7010034,"Goodwood Rd opp Elwick Racecourse",, -42.826915, 147.287670,HOBC,,0,,1
7010035,7010035,"Goodwood Rd before Howard Rd",, -42.823398, 147.296079,HOBC,,0,,0
7010036,7010036,"Goodwood Rd after Howard Rd",, -42.823100, 147.295679,HOBC,,0,,0
7010037,7010037,"Innovation Dr opp Longreach Av",, -42.823647, 147.300569,HOBC,,0,,0
7010038,7010038,"Innovation Dr at Longreach Av",, -42.823761, 147.300439,HOBC,,0,,0
7010039,7010039,"Dominic College",, -42.846894, 147.257623,HOBC,,0,,0
7010040,7010040,"Tasmanian Technopark, Innovation Dr, Tech 3",, -42.823068, 147.302853,HOBC,,0,,0
7010041,7010041,"505 Kalang Av",, -42.856109, 147.268515,HOBC,,0,,0
7010042,7010042,"Tasmanian Technopark, Innovation Dr, Tech 1",, -42.822112, 147.303674,HOBC,,0,,0
7010043,7010043,"576 Kalang Av",, -42.856183, 147.268872,HOBC,,0,,0
7010044,7010044,"Barossa Rd after Bimburra Rd",, -42.852063, 147.267956,HOBC,,0,,0
7010045,7010045,"Barossa Rd after Nagle Pl",, -42.851504, 147.268136,HOBC,,0,,0
7010046,7010046,"Tolosa St opp Merton St",, -42.850469, 147.256472,HOBC,,0,,0
7010047,7010047,"Acton Cr before Renfrew Cir",, -42.829006, 147.290476,HOBC,,0,,1
7010048,7010048,"Chapel St before Kensington St",, -42.832149, 147.269833,HOBB,,0,,0
7010049,7010049,"Tolosa St before Clydesdale Av",, -42.838782, 147.271516,HOBC,,0,,0
7010050,7010050,"Tolosa St before Balmain St",, -42.838492, 147.271507,HOBC,,0,,0
7010051,7010051,"Chapel St opp Hull St",, -42.832454, 147.269734,HOBB,,0,,1
7010052,7010052,"Glenorchy Primary School, Hull St",, -42.832548, 147.266050,HOBB,,0,,0
7010053,7010053,"Hull St opp Glenorchy Primary School",, -42.832701, 147.267382,HOBB,,0,,0
7010054,7010054,"Tolosa St before Vieste Dr",, -42.840310, 147.270207,HOBC,,0,,0
7010055,7010055,"Giblins Reserve, Howard Rd",, -42.828687, 147.295306,HOBC,,0,,0
7010056,7010056,"Howard Rd before Hornby Rd",, -42.827153, 147.296930,HOBC,,0,,0
7010057,7010057,"Tolosa St before Brent St",, -42.841665, 147.268949,HOBC,,0,,0
7010058,7010058,"Tolosa St after Brent St",, -42.842101, 147.268815,HOBC,,0,,0
7010059,7010059,"Continental Rd before Sussex St",, -42.832639, 147.263771,HOBB,,0,,0
7010060,7010060,"Continental Rd after Sussex St",, -42.832437, 147.263834,HOBB,,0,,0
7010061,7010061,"Sussex St at Pitcairn St",, -42.833566, 147.262144,HOBB,,0,,0
7010062,7010062,"Howard Rd at Negara Cr",, -42.825025, 147.296673,HOBC,,0,,0
7010063,7010063,"Montrose Rd after Main Rd",, -42.826860, 147.263876,HOBB,,0,,0
7010064,7010064,"Montrose Rd before Main Rd",, -42.826531, 147.264401,HOBB,,0,,0
7010065,7010065,"Sussex St after Pitcairn St",, -42.833375, 147.262021,HOBB,,0,,0
7010066,7010066,"Stapleton St before Barossa Rd",, -42.843777, 147.269689,HOBC,,0,,0
7010067,7010067,"Stapleton St after Barossa Rd",, -42.843635, 147.269857,HOBC,,0,,0
7010068,7010068,"Guilford Young College, Tolosa St",, -42.836007, 147.272825,HOBC,,0,,1
7010069,7010069,"King George V Soccer Ground, Grove Rd",, -42.829024, 147.279308,HOBB,,0,,0
7010070,7010070,"Marys Hope Rd after Tarcombe St",, -42.821148, 147.246581,HOBB,,0,,0
7010071,7010071,"Radcliff Cr at Gould Cr",, -42.819406, 147.254071,HOBB,,0,,0
7010072,7010072,"Grove Rd opp King George V Soccer Ground",, -42.828554, 147.278651,HOBB,,0,,0
7010073,7010073,"Brent St opp Elliot Rd",, -42.835801, 147.259084,HOBB,,0,,0
7010074,7010074,"Brent St at Elliot Rd",, -42.835890, 147.258929,HOBB,,0,,0
7010075,7010075,"Howard Rd opp Giblins Reserve",, -42.828757, 147.294875,HOBC,,0,,0
7010076,7010076,"Gould Cr at Radcliff Cr",, -42.819203, 147.253530,HOBB,,0,,0
7010077,7010077,"Sunlea Pl before Wariga Rd",, -42.844415, 147.263515,HOBC,,0,,0
7010078,7010078,"Marys Hope Rd after Kilander Cr",, -42.816847, 147.241322,HOBB,,0,,0
7010079,7010079,"Vieste Dr after Charleston Pl",, -42.842111, 147.272363,HOBC,,0,,0
7010080,7010080,"Acton Cr after Renfrew Cir",, -42.828809, 147.290092,HOBC,,0,,1
7010081,7010081,"Wariga Rd before Farnham Ct",, -42.845204, 147.260301,HOBC,,0,,0
7010082,7010082,"Wariga Rd after Farnham Ct",, -42.844955, 147.260823,HOBC,,0,,0
7010083,7010083,"Crosby Rd after Gould Cr",, -42.819442, 147.251511,HOBB,,0,,0
7010084,7010084,"Brent St opp Anthony Pl",, -42.838055, 147.263685,HOBB,,0,,0
7010085,7010085,"Crosby Rd at Gould Cr",, -42.819494, 147.251702,HOBB,,0,,0
7010086,7010086,"Grove Rd at McKay Av",, -42.827283, 147.275460,HOBB,,0,,0
7010087,7010087,"Brent St after Anthony Pl",, -42.838045, 147.262899,HOBB,,0,,0
7010088,7010088,"Grove Rd at Booth Av",, -42.827170, 147.275700,HOBB,,0,,0
7010089,7010089,"Vieste Dr before Charleston Pl",, -42.841972, 147.272369,HOBC,,0,,0
7010090,7010090,"Wariga Rd at Lever Ct",, -42.846192, 147.258774,HOBC,,0,,0
7010091,7010091,"Chapel St after O'Brien St",, -42.839612, 147.264252,HOBB,,0,,0
7010092,7010092,"Chapel St before O'Brien St",, -42.839489, 147.264983,HOBB,,0,,1
7010093,7010093,"Wariga Rd opp Lever Ct",, -42.846438, 147.258512,HOBC,,0,,0
7010094,7010094,"Crosby Rd after Alroy Ct",, -42.817310, 147.248628,HOBB,,0,,0
7010095,7010095,"Grove Rd before Herbert St",, -42.827330, 147.271229,HOBB,,0,,0
7010096,7010096,"Grove Rd before McKay Av",, -42.827528, 147.271366,HOBB,,0,,0
7010097,7010097,"Crosby Rd after Chandos Dr",, -42.817221, 147.248768,HOBB,,0,,0
7010098,7010098,"Chapel St at Paringa Rd",, -42.840507, 147.262939,HOBB,,0,,0
7010099,7010099,"Chapel St after Norman Cir",, -42.841163, 147.262413,HOBB,,0,,0
7010100,7010100,"Dominic College, Tolosa St",, -42.849559, 147.258339,HOBC,,0,,1
7010101,7010101,"Tolosa St opp Dominic College",, -42.849556, 147.258663,HOBC,,0,,0
7010102,7010102,"Jackson St before Illawarra Rd",, -42.842461, 147.259631,HOBB,,0,,0
7010103,7010103,"Jackson St at Albion St",, -42.841488, 147.257681,HOBB,,0,,0
7010104,7010104,"Chapel St before Brent St",, -42.838622, 147.265937,HOBB,,0,,0
7010105,7010105,"Stansbury St after Anderson St",, -42.846137, 147.269246,HOBC,,0,,0
7010106,7010106,"Montrose Rd before Vernon Av",, -42.827415, 147.262263,HOBB,,0,,0
7010107,7010107,"Stansbury St after Milburn Pl",, -42.846272, 147.269257,HOBC,,0,,0
7010108,7010108,"Montrose Rd after Katoomba Cr",, -42.827350, 147.262048,HOBB,,0,,0
7010109,7010109,"Pitcairn St after Townsville Pl",, -42.832228, 147.258745,HOBB,,0,,0
7010110,7010110,"Chapel St after Brent St",, -42.838283, 147.265734,HOBB,,0,,0
7010111,7010111,"92 Renfrew Cir",, -42.827553, 147.290564,HOBC,,0,,0
7010112,7010112,"Barron Av before Howard Rd",, -42.824550, 147.294705,HOBC,,0,,0
7010113,7010113,"Dickson St before Stansbury St",, -42.848915, 147.271647,HOBC,,0,,0
7010114,7010114,"Garfield Rd after Pitcairn St",, -42.831713, 147.256564,HOBB,,0,,0
7010115,7010115,"Katoomba Cr after Walker St",, -42.826010, 147.260875,HOBB,,0,,0
7010116,7010116,"Garfield Rd before Pitcairn St",, -42.831443, 147.256288,HOBB,,0,,0
7010117,7010117,"Stansbury St after Hudson Cr",, -42.848197, 147.272025,HOBC,,0,,0
7010118,7010118,"Renfrew Cir after Allardyce Av",, -42.825892, 147.291817,HOBC,,0,,0
7010119,7010119,"Renfrew Cir at Allardyce Av",, -42.826102, 147.291700,HOBC,,0,,0
7010120,7010120,"Katoomba Cr opp Walker St",, -42.826365, 147.260993,HOBB,,0,,0
7010121,7010121,"Garfield Rd before Hearne Pl",, -42.831906, 147.254843,HOBB,,0,,0
7010122,7010122,"Renfrew Cir after Acton Cr",, -42.828249, 147.289882,HOBC,,0,,0
7010123,7010123,"Devines Rd at Cochrane St",, -42.849791, 147.270894,HOBC,,0,,0
7010124,7010124,"Marys Hope Rd opp Katoomba Cr",, -42.822604, 147.260759,HOBB,,0,,0
7010125,7010125,"Cochrane St at Devines Rd",, -42.849525, 147.271152,HOBC,,0,,0
7010126,7010126,"Garfield Rd after Hearne Pl",, -42.831748, 147.254428,HOBB,,0,,0
7010127,7010127,"Katoomba Cr at Marys Hope Rd",, -42.822984, 147.260992,HOBB,,0,,0
7010128,7010128,"Barron Av after Edinburgh Cr",, -42.825232, 147.294408,HOBC,,0,,0
7010129,7010129,"Brent St after Garfield Rd",, -42.832742, 147.253888,HOBB,,0,,0
7010130,7010130,"Brent St before Garfield Rd",, -42.832920, 147.253661,HOBB,,0,,0
7010131,7010131,"Barossa Rd after Dickson St",, -42.847540, 147.267158,HOBC,,0,,0
7010132,7010132,"Marys Hope Rd at Barclay Cr",, -42.823091, 147.258115,HOBB,,0,,0
7010133,7010133,"Marys Hope Rd before Barclay Cr",, -42.823107, 147.256996,HOBB,,0,,0
7010134,7010134,"Barossa Rd before Dickson St",, -42.847666, 147.267514,HOBC,,0,,0
7010135,7010135,"McGough St before Elwick Rd",, -42.827904, 147.282881,HOBB,,0,,0
7010136,7010136,"Sanders St after Verbena Pl",, -42.843974, 147.264747,HOBC,,0,,0
7010137,7010137,"Brent St opp Hassell Pl",, -42.834173, 147.255891,HOBB,,0,,0
7010138,7010138,"Radcliff Cr after Carter Ct",, -42.821090, 147.255612,HOBB,,0,,0
7010139,7010139,"Howard Rd after Havelock Av",, -42.827076, 147.296753,HOBC,,0,,0
7010140,7010140,"Brent St at Binya St",, -42.834120, 147.255210,HOBB,,0,,0
7010141,7010141,"Radcliff Cr opp Carter Ct",, -42.821233, 147.255790,HOBB,,0,,0
7010142,7010142,"Marys Hope Rd before Crosby Rd",, -42.823754, 147.253124,HOBB,,0,,0
7010143,7010143,"Sanders St opp Verbena Pl",, -42.844195, 147.264557,HOBC,,0,,0
7010144,7010144,"Marys Hope Rd after Crosby Rd",, -42.823968, 147.252330,HOBB,,0,,0
7010145,7010145,"Marys Hope Rd before Tarcombe St",, -42.821389, 147.246468,HOBB,,0,,0
7010146,7010146,"Jackson St before Chapel St",, -42.842440, 147.259904,HOBB,,0,,0
7010147,7010147,"Elwick Racecourse, Goodwood Rd",, -42.826509, 147.288076,HOBC,,0,,1
7010148,7010148,"Arnold St after Grove Rd",, -42.828940, 147.280817,HOBB,,0,,0
7010149,7010149,"Tolosa St opp Guilford Young College",, -42.836181, 147.272901,HOBC,,0,,1
7010150,7010150,"90 Tolosa St",, -42.840065, 147.270277,HOBC,,0,,0
7010151,7010151,"Glenorchy Interchange, Tolosa St",, -42.833632, 147.274089,HOBBC,,0,place_intgle,0
7010152,7010152,"Pitcairn St before Townsville Pl",, -42.832402, 147.258748,HOBB,,0,,0
7010153,7010153,"Howard Rd before Negara Cr",, -42.825097, 147.296516,HOBC,,0,,0
7010154,7010154,"Sunlea Pl at Sanders St",, -42.844273, 147.262988,HOBC,,0,,0
7010157,7010157,"Glenorchy Primary School",, -42.831828, 147.266601,HOBB,,0,,0
7011001,7011001,"Main Rd after Berriedale Rd",, -42.815081, 147.255538,HOBB,,0,,0
7011002,7011002,"St Virgil's College, Main Rd",, -42.775592, 147.250510,HOBB,,0,,0
7011003,7011003,"MONA, Main Rd",, -42.812266, 147.254988,HOBB,,0,,1
7011004,7011004,"Main Rd before Arncliffe Rd",, -42.770344, 147.246765,HOBB,,0,,0
7011005,7011005,"Main Rd opp Roseneath Park",, -42.781412, 147.252440,HOBB,,0,,0
7011006,7011006,"Windermere Primary School, Main Rd",, -42.798773, 147.255227,HOBB,,0,,0
7011007,7011007,"Berriedale Bay Reserve, Main Rd",, -42.809490, 147.254492,HOBB,,0,,0
7011008,7011008,"Beedhams Reserve, Main Rd",, -42.787489, 147.252436,HOBB,,0,,0
7011009,7011009,"Main Rd after Merely Rd",, -42.779638, 147.252212,HOBB,,0,,0
7011010,7011010,"Claremont Recreation Ground, Main Rd",, -42.792159, 147.254438,HOBB,,0,,1
7011011,7011011,"Main Rd at Connewarre Cr",, -42.801200, 147.254859,HOBB,,0,,0
7011012,7011012,"Main Rd before Hilton Rd",, -42.785550, 147.251938,HOBB,,0,,1
7011013,7011013,"Main Rd opp Beedhams Reserve",, -42.787813, 147.252446,HOBB,,0,,0
7011014,7011014,"Main Rd opp Windermere Primary School",, -42.799547, 147.254823,HOBB,,0,,1
7011015,7011015,"Roseneath Park, Main Rd",, -42.781116, 147.252196,HOBB,,0,,0
7011016,7011016,"Main Rd opp Berriedale Bay Reserve",, -42.809638, 147.254339,HOBB,,0,,0
7011018,7011018,"Main Rd after Casuarina Cr",, -42.802888, 147.254464,HOBB,,0,,0
7011019,7011019,"Main Rd before Berriedale Rd",, -42.815272, 147.255504,HOBB,,0,,0
7011020,7011020,"Main Rd opp MONA",, -42.812721, 147.254811,HOBB,,0,,0
7011021,7011021,"Main Rd at Arncliffe Rd",, -42.772004, 147.247616,HOBB,,0,,0
7011022,7011022,"Main Rd at Laverack Ct",, -42.779437, 147.251912,HOBB,,0,,1
7011023,7011023,"Main Rd opp St Virgil's College",, -42.775653, 147.250297,HOBB,,0,,0
7011024,7011024,"Main Rd after Bilton St",, -42.789530, 147.253376,HOBB,,0,,0
7011025,7011025,"Main Rd after Hilton Rd",, -42.785587, 147.251752,HOBB,,0,,0
7011026,7011026,"Main Rd before Whitestone Dr",, -42.766906, 147.243583,HOBB,,0,,0
7011027,7011027,"Main Rd after Whitestone Dr",, -42.767144, 147.244094,HOBB,,0,,0
7011028,7011028,"Cadbury Rd at Bilton St",, -42.790934, 147.257046,HOBB,,0,,0
7011029,7011029,"Claremont College",, -42.795109, 147.251655,HOBB,,0,,0
7011030,7011030,"Louise Rd before Baltonsborough Rd",, -42.770740, 147.244731,HOBB,,0,,0
7011031,7011031,"Louise Rd before Brendan Cr",, -42.770798, 147.245208,HOBB,,0,,0
7011032,7011032,"St Virgil's College",, -42.774060, 147.250663,HOBB,,0,,0
7011033,7011033,"Marys Hope Rd at Dooleys Av",, -42.816532, 147.240462,HOBB,,0,,0
7011034,7011034,"Main Rd opp Claremont Recreation Ground",, -42.792536, 147.254446,HOBB,,0,,0
7011035,7011035,"Chandos Dr after Kirala Ct",, -42.816541, 147.246489,HOBB,,0,,0
7011036,7011036,"Chandos Dr before Kirala Ct",, -42.816616, 147.246288,HOBB,,0,,0
7011037,7011037,"Box Hill Rd after Belgrave St",, -42.792249, 147.250526,HOBB,,0,,0
7011038,7011038,"Box Hill Rd after Waldron St",, -42.792405, 147.250510,HOBB,,0,,0
7011039,7011039,"Berriedale Rd at Taree St",, -42.814879, 147.244331,HOBB,,0,,0
7011040,7011040,"Box Hill Rd opp Cullen St",, -42.794504, 147.245458,HOBB,,0,,0
7011041,7011041,"Box Hill Rd at Cullen St",, -42.794149, 147.245590,HOBB,,0,,0
7011042,7011042,"Berriedale Rd before Chandos Dr",, -42.815347, 147.245571,HOBB,,0,,0
7011043,7011043,"Chandos Drive Reserve, Chandos Dr",, -42.815387, 147.245009,HOBB,,0,,0
7011044,7011044,"Allunga Rd at Carcoola St",, -42.813998, 147.241032,HOBB,,0,,1
7011045,7011045,"Berriedale Rd at Chandos Dr",, -42.816157, 147.250059,HOBB,,0,,0
7011046,7011046,"Allunga Rd opp Carcoola St",, -42.813890, 147.240826,HOBB,,0,,1
7011047,7011047,"Berriedale Rd before Catherine St",, -42.816027, 147.250308,HOBB,,0,,0
7011048,7011048,"Adelphi Rd after Box Hill Rd",, -42.795555, 147.242243,HOBB,,0,,0
7011049,7011049,"Adelphi Rd before Box Hill Rd",, -42.795265, 147.242302,HOBB,,0,,0
7011050,7011050,"Adelphi Rd opp Abbotsfield Park",, -42.792419, 147.240793,HOBB,,0,,0
7011051,7011051,"Catherine St at Kingswood Cr",, -42.813892, 147.250189,HOBB,,0,,0
7011052,7011052,"Allunga Rd at Coraki St",, -42.812120, 147.242006,HOBB,,0,,0
7011053,7011053,"Abbotsfield Park, Adelphi Rd",, -42.792201, 147.240975,HOBB,,0,,0
7011054,7011054,"Catherine St opp Kingswood Cr",, -42.813676, 147.250306,HOBB,,0,,0
7011055,7011055,"Allunga Rd before Bucaan St",, -42.811577, 147.241925,HOBB,,0,,0
7011056,7011056,"Adelphi Rd after Abottsfield Rd",, -42.789704, 147.240373,HOBB,,0,,0
7011057,7011057,"Adelphi Rd before Abbotsfield Rd",, -42.789973, 147.240198,HOBB,,0,,0
7011058,7011058,"Allunga Rd after Bycool Cir",, -42.810152, 147.242803,HOBB,,0,,0
7011059,7011059,"Allunga Rd opp Bycool Cir",, -42.810530, 147.242816,HOBB,,0,,0
7011060,7011060,"Kinarra Cr before Catherine St",, -42.810661, 147.248890,HOBB,,0,,0
7011061,7011061,"Abbotsfield Rd after Russell Rd",, -42.789665, 147.236649,HOBB,,0,,0
7011062,7011062,"Danina St after Junee St",, -42.810117, 147.246312,HOBB,,0,,1
7011063,7011063,"Abbotsfield Rd before Russell Rd",, -42.789781, 147.236411,HOBB,,0,,0
7011064,7011064,"Tavistock Rd opp Edwin Pl",, -42.776864, 147.248123,HOBB,,0,,0
7011065,7011065,"Tavistock Rd before Edwin Pl",, -42.776644, 147.247951,HOBB,,0,,0
7011066,7011066,"Allunga Rd opp Kilpa St",, -42.807090, 147.244577,HOBB,,0,,0
7011067,7011067,"Allunga Rd after Kilpa St",, -42.807602, 147.244834,HOBB,,0,,0
7011068,7011068,"Allunga Rd at Midson Pl",, -42.804515, 147.245211,HOBB,,0,,0
7011069,7011069,"Sunshine Rd opp Tracy Rd",, -42.774642, 147.245567,HOBB,,0,,0
7011070,7011070,"Sunshine Rd before Eclipse Rd",, -42.774681, 147.245977,HOBB,,0,,0
7011071,7011071,"Harbord Rd opp Boyd Ct",, -42.787895, 147.230854,HOBB,,0,,0
7011072,7011072,"Kanella Av before Langura Av",, -42.809357, 147.247605,HOBB,,0,,0
7011073,7011073,"Allunga Rd after Karambi St",, -42.804222, 147.245051,HOBB,,0,,0
7011074,7011074,"Battersby Dr before Canberra Rd",, -42.800507, 147.245198,HOBB,,0,,0
7011075,7011075,"Battersby Dr after Canberra Rd",, -42.800594, 147.245198,HOBB,,0,,0
7011076,7011076,"Claremont Link Rd after Canberra Rd",, -42.800370, 147.247467,HOBB,,0,,0
7011077,7011077,"Claremont Link Rd before Canberra Rd",, -42.800640, 147.247634,HOBB,,0,,0
7011078,7011078,"Hanlon St before Harbord Rd",, -42.787096, 147.231126,HOBB,,0,,0
7011079,7011079,"Hanlon St after Harbord Rd",, -42.786950, 147.231266,HOBB,,0,,0
7011080,7011080,"Arncliffe Rd before Sunshine Rd",, -42.773283, 147.244495,HOBB,,0,,0
7011081,7011081,"Arncliffe Rd after Sunshine Rd",, -42.773094, 147.244520,HOBB,,0,,0
7011082,7011082,"Battersby Dr after Box Hill Rd",, -42.799790, 147.244417,HOBB,,0,,0
7011083,7011083,"Battersby Dr before Box Hill Rd",, -42.799734, 147.244229,HOBB,,0,,0
7011084,7011084,"Spring St before Bradfield St",, -42.786140, 147.232728,HOBB,,0,,0
7011085,7011085,"Moorina Cr after Maroni Rd",, -42.801881, 147.251018,HOBB,,0,,1
7011086,7011086,"Spring St after Bradfield St",, -42.786127, 147.232569,HOBB,,0,,0
7011087,7011087,"Moorina Cr before Maroni Rd",, -42.801709, 147.251099,HOBB,,0,,0
7011088,7011088,"Box Hill Rd after Battersby Dr",, -42.798279, 147.241722,HOBB,,0,,0
7011089,7011089,"Cammeray Rd after Perry St",, -42.785289, 147.235560,HOBB,,0,,0
7011090,7011090,"Cammeray Rd at Perry St",, -42.785147, 147.234597,HOBB,,0,,0
7011091,7011091,"Maroni Rd before Mentmore St",, -42.800558, 147.253263,HOBB,,0,,0
7011092,7011092,"Box Hill Rd before Battersby Dr",, -42.798445, 147.241819,HOBB,,0,,0
7011093,7011093,"Maroni Rd after Mentmore St",, -42.800742, 147.253378,HOBB,,0,,0
7011094,7011094,"Cadbury Rd opp Windermere Primary School",, -42.797745, 147.255608,HOBB,,0,,0
7011095,7011095,"Colston St after Narelle Pl",, -42.787234, 147.237562,HOBB,,0,,0
7011096,7011096,"Cadbury Rd after Windermere Beach Rd",, -42.796353, 147.256917,HOBB,,0,,1
7011097,7011097,"Euston St before Colston St",, -42.787128, 147.240995,HOBB,,0,,0
7011098,7011098,"Euston St before Cleburne St",, -42.787142, 147.241207,HOBB,,0,,0
7011099,7011099,"Cadbury Rd before Windermere Beach Rd",, -42.796244, 147.256782,HOBB,,0,,1
7011100,7011100,"Cadbury Rd before Box Hill Rd",, -42.793217, 147.256793,HOBB,,0,,0
7011101,7011101,"Euston St before Abbotsfield Rd",, -42.787698, 147.244788,HOBB,,0,,0
7011102,7011102,"Euston St after Abbotsfield Rd",, -42.787815, 147.245051,HOBB,,0,,1
7011103,7011103,"Cadbury Rd after Box Hill Rd",, -42.793340, 147.256952,HOBB,,0,,0
7011104,7011104,"Claremont Plaza, Bilton St",, -42.789929, 147.254071,HOBB,,0,,1
7011105,7011105,"Leighland Rd before Redfern Pl",, -42.787088, 147.246411,HOBB,,0,,0
7011106,7011106,"Bilton St opp Claremont Plaza",, -42.789768, 147.254337,HOBB,,0,,0
7011107,7011107,"Leighland Rd after Redfern Pl",, -42.786969, 147.246611,HOBB,,0,,0
7011108,7011108,"Edgar St after Hilton St",, -42.784426, 147.245507,HOBB,,0,,0
7011109,7011109,"Cadbury Rd after Bilton St",, -42.789871, 147.258085,HOBB,,0,,1
7011110,7011110,"Hilton Rd after Edgar St",, -42.784979, 147.245255,HOBB,,0,,0
7011111,7011111,"Hilton Rd at Edgar St",, -42.784558, 147.244429,HOBB,,0,,0
7011112,7011112,"Cadbury Rd before Bilton St",, -42.790178, 147.257969,HOBB,,0,,0
7011113,7011113,"Mason St after Chippendale St",, -42.783659, 147.246174,HOBB,,0,,0
7011114,7011114,"Bilton Bay Reserve, Cadbury Rd",, -42.789391, 147.259799,HOBB,,0,,0
7011115,7011115,"Mason St before Chippendale St",, -42.783792, 147.245948,HOBB,,0,,0
7011116,7011116,"Hilton Rd at Chatterton Ct",, -42.782944, 147.241143,HOBB,,0,,0
7011117,7011117,"Hilton Rd after Chatterton Ct",, -42.782374, 147.239740,HOBB,,0,,0
7011118,7011118,"Somerdale Rd before Mitcham Rd",, -42.789327, 147.261746,HOBB,,0,,0
7011119,7011119,"Mason St after Erskine St",, -42.783870, 147.248021,HOBB,,0,,0
7011120,7011120,"Mason St before Erskine St",, -42.783787, 147.247654,HOBB,,0,,0
7011121,7011121,"13 Mason St",, -42.783945, 147.249952,HOBB,,0,,0
7011122,7011122,"14 Mason St",, -42.783742, 147.250006,HOBB,,0,,0
7011123,7011123,"Bournville Cr after Mitcham Rd",, -42.788956, 147.265411,HOBB,,0,,0
7011124,7011124,"Cadbury Factory, Cadbury Rd",, -42.791479, 147.266236,HOBB,,0,,0
7011125,7011125,"Colston St at Narelle Pl",, -42.787021, 147.237722,HOBB,,0,,0
7011126,7011126,"Harbord Rd before Abbotsfield Rd",, -42.788191, 147.231202,HOBB,,0,,0
7011127,7011127,"Windermere Primary School, Cadbury Rd",, -42.797522, 147.255981,HOBB,,0,,1
7015001,7015001,"Rose Bay High School, Rosny Hill Rd",, -42.862145, 147.361893,HOBC,,0,,0
7015002,7015002,"Australian Christian College, Golf Links Rd",, -42.839131, 147.352810,HOBC,,0,,0
7015003,7015003,"Golf Links Rd opp Australian Christian College",, -42.838895, 147.353066,HOBC,,0,,0
7015004,7015004,"Lindisfarne North Primary School",, -42.838480, 147.350887,HOBC,,0,,0
7015006,7015006,"St Helens St opp Elwood Dr",, -42.853764, 147.367752,HOBC,,0,,0
7015007,7015007,"Walana St at Fig Pl",, -42.837512, 147.362348,HOBC,,0,,0
7015008,7015008,"Fairfield Rd after Golf Links Rd",, -42.837229, 147.357742,HOBC,,0,,0
7015009,7015009,"Lindhill Av at Chen Ct",, -42.839877, 147.356096,HOBC,,0,,0
7015010,7015010,"Golf Links Rd after Fairfield Rd",, -42.838227, 147.358502,HOBC,,0,,0
7015011,7015011,"Derwent Av before Musgrove Rd",, -42.841127, 147.344001,HOBC,,0,,0
7015012,7015012,"Walana St opp Fig Pl",, -42.837681, 147.362192,HOBC,,0,,0
7015013,7015013,"Gordons Hill Rd at Kirkham Dr",, -42.858959, 147.370950,HOBC,,0,,0
7015014,7015014,"Marril St opp Lindwood Ct",, -42.856151, 147.370901,HOBC,,0,,0
7015015,7015015,"Fairfield Rd opp Fairfield Park",, -42.835392, 147.357592,HOBC,,0,,0
7015016,7015016,"Henley St before Cottesloe St",, -42.851882, 147.366374,HOBC,,0,,0
7015017,7015017,"Gordons Hill Rd after Excalibur Pl",, -42.849680, 147.364415,HOBC,,0,,0
7015018,7015018,"Gordons Hill Rd at Cedar St",, -42.850691, 147.367928,HOBC,,0,,0
7015019,7015019,"Gordons Hill Rd before Excalibur Pl",, -42.849522, 147.364559,HOBC,,0,,0
7015020,7015020,"Glenelg St before Gordons Hill Rd",, -42.851269, 147.368206,HOBC,,0,,0
7015021,7015021,"Adina St opp Adina Park",, -42.839650, 147.359595,HOBC,,0,,0
7015022,7015022,"Henley St before Glenelg St",, -42.851722, 147.366864,HOBC,,0,,0
7015023,7015023,"Cottesloe St before Manly Av",, -42.852568, 147.364692,HOBC,,0,,0
7015024,7015024,"Cottesloe St after Manly Av",, -42.852527, 147.364968,HOBC,,0,,0
7015025,7015025,"Walana St before Eurobin St",, -42.835733, 147.361520,HOBC,,0,,0
7015026,7015026,"St Helens St before Tulloch Ct",, -42.855457, 147.369553,HOBC,,0,,0
7015027,7015027,"Gordons Hill Rd after Toogood Dr",, -42.859281, 147.371466,HOBC,,0,,0
7015028,7015028,"67 Walana St",, -42.838957, 147.364488,HOBC,,0,,0
7015029,7015029,"Rose Bay High School, Kaoota Rd",, -42.861163, 147.358161,HOBC,,0,,0
7015030,7015030,"Walana St after Eurobin St",, -42.835814, 147.361659,HOBC,,0,,0
7015031,7015031,"Lindhill Av at Lynch St",, -42.841180, 147.359251,HOBC,,0,,0
7015032,7015032,"Eurobin St before Kapala Pl",, -42.834565, 147.360084,HOBC,,0,,0
7015033,7015033,"Lindhill Av after Lynch St",, -42.841305, 147.359161,HOBC,,0,,0
7015034,7015034,"Eurobin St after Kapala Pl",, -42.834474, 147.359986,HOBC,,0,,0
7015035,7015035,"Glenelg St after Gordons Hill Rd",, -42.851423, 147.368338,HOBC,,0,,0
7015036,7015036,"Adina Park, Adina St",, -42.839737, 147.359970,HOBC,,0,,0
7015037,7015037,"Marril St before Gordons Hill Rd",, -42.855535, 147.371047,HOBC,,0,,0
7015038,7015038,"Lindhill Av opp Chen Ct",, -42.839759, 147.356224,HOBC,,0,,0
7015039,7015039,"Derwent Av before Oliver Av",, -42.847750, 147.349880,HOBC,,0,,0
7015040,7015040,"Derwent Av after Oliver Av",, -42.847728, 147.349483,HOBC,,0,,0
7015041,7015041,"Clinton Rd after Oscars Pl",, -42.829830, 147.348411,HOBC,,0,,0
7015042,7015042,"Clinton Rd before Oscars Pl",, -42.829901, 147.348758,HOBC,,0,,0
7015043,7015043,"Derwent Av at Rianna Rd",, -42.847868, 147.346287,HOBC,,0,,0
7015044,7015044,"Clinton Rd before Bellemont Ct",, -42.828204, 147.347399,HOBC,,0,,0
7015045,7015045,"Clinton Rd after Bellemont Ct",, -42.828125, 147.347145,HOBC,,0,,0
7015046,7015046,"East Derwent Hwy at Piper Rd",, -42.818916, 147.342274,HOBC,,0,,0
7015047,7015047,"Derwent Av at Paloona St",, -42.846679, 147.342252,HOBC,,0,,0
7015048,7015048,"Derwent Av after Paloona St",, -42.846855, 147.342901,HOBC,,0,,0
7015049,7015049,"Derwent Av after Ambleside",, -42.845559, 147.339682,HOBC,,0,,0
7015050,7015050,"Derwent Av opp Ambleside",, -42.845645, 147.340197,HOBC,,0,,0
7015051,7015051,"East Derwent Hwy before Bay Rd",, -42.846351, 147.359268,HOBC,,0,,0
7015052,7015052,"East Derwent Hwy after Lincoln St",, -42.845473, 147.357728,HOBC,,0,,0
7015053,7015053,"St Cuthbert's Catholic School, East Derwent Hwy",, -42.843838, 147.355584,HOBC,,0,,0
7015054,7015054,"East Derwent Hwy opp St Cuthbert's Catholic School",, -42.844048, 147.355335,HOBC,,0,,0
7015055,7015055,"Lincoln St at Milford St",, -42.846576, 147.356981,HOBC,,0,,0
7015056,7015056,"Lincoln St opp Amelia St",, -42.846958, 147.355585,HOBC,,0,,0
7015057,7015057,"East Derwent Hwy after Golf Links Rd",, -42.840128, 147.352197,HOBC,,0,,0
7015058,7015058,"Lincoln St at Amelia St",, -42.846781, 147.355649,HOBC,,0,,0
7015061,7015061,"Clinton Rd before Llenroc St",, -42.833688, 147.349926,HOBC,,0,,0
7015062,7015062,"Lindisfarne Village, Derwent Av",, -42.846161, 147.354478,HOBC,,0,,0
7015063,7015063,"Clinton Rd after Llenroc St",, -42.833730, 147.349771,HOBC,,0,,0
7015064,7015064,"Derwent Av opp Lindisfarne Village",, -42.846209, 147.353794,HOBC,,0,,0
7015065,7015065,"89 Derwent Av",, -42.843867, 147.338756,HOBC,,0,,0
7015066,7015066,"East Derwent Hwy before Lenna St",, -42.859188, 147.355397,HOBC,,0,,0
7015067,7015067,"71 Derwent Av",, -42.842345, 147.340414,HOBC,,0,,0
7015068,7015068,"90 Derwent Av",, -42.842431, 147.340660,HOBC,,0,,0
7015069,7015069,"Derwent Av after Musgrove Rd",, -42.841342, 147.343958,HOBC,,0,,0
7015070,7015070,"Derwent Av before Sunhaven Av",, -42.840453, 147.347607,HOBC,,0,,0
7015071,7015071,"Derwent Av after Sunhaven Av",, -42.840719, 147.347164,HOBC,,0,,0
7015072,7015072,"Derwent Av before Nubeena St",, -42.839888, 147.349261,HOBC,,0,,0
7015073,7015073,"Derwent Av after Nubeena St",, -42.839999, 147.349834,HOBC,,0,,0
7015074,7015074,"East Derwent Hwy at Lenna St",, -42.858519, 147.356107,HOBC,,0,,0
7015075,7015075,"East Derwent Hwy after Lenna St",, -42.857906, 147.355991,HOBC,,0,,0
7015076,7015076,"Rose Bay High School, East Derwent Hwy",, -42.860113, 147.355333,HOBC,,0,,0
7015077,7015077,"Lindisfarne Primary School, East Derwent Hwy",, -42.851437, 147.361243,HOBC,,0,,0
7015078,7015078,"East Derwent Hwy opp Lindisfarne Primary School",, -42.850791, 147.361656,HOBC,,0,,0
7015079,7015079,"East Derwent Hwy before Boatta Rd",, -42.847148, 147.360825,HOBC,,0,,0
7015080,7015080,"East Derwent Hwy after Boatta Rd",, -42.847099, 147.361526,HOBC,,0,,0
7015081,7015081,"East Derwent Hwy after Ronnie St",, -42.855912, 147.356599,HOBC,,0,,0
7015082,7015082,"East Derwent Hwy after Shore St",, -42.853411, 147.357402,HOBC,,0,,0
7015083,7015083,"East Derwent Hwy before Sunnyside Rd",, -42.852776, 147.358992,HOBC,,0,,0
7015084,7015084,"East Derwent Hwy before Ballawinnie Rd",, -42.852198, 147.359637,HOBC,,0,,0
7015085,7015085,"Fairfield Park, Fairfield Rd",, -42.835772, 147.357723,HOBC,,0,,0
7015086,7015086,"St Helens St at Elwood Dr",, -42.854074, 147.367960,HOBC,,0,,0
7015087,7015087,"St Helens St after Tulloch Ct",, -42.855849, 147.369657,HOBC,,0,,0
7015088,7015088,"East Derwent Hwy at Broad St",, -42.841079, 147.352408,HOBC,,0,,0
7015089,7015089,"Derwent Av at Eldon St",, -42.848240, 147.346939,HOBC,,0,,0
7015090,7015090,"East Derwent Hwy at Ronnie St",, -42.856514, 147.356944,HOBC,,0,,0
7015091,7015091,"East Derwent Hwy at Araluen St",, -42.836385, 147.350992,HOBC,,0,,2
7015092,7015092,"Lindisfarne North Primary School, East Derwent Hwy",, -42.836927, 147.350892,HOBC,,0,,2
7016001,7016001,"Sycamore Rd opp Spinifex Rd",, -42.810386, 147.357205,HOBC,,0,,0
7016002,7016002,"Spinifex Rd after Sycamore Rd",, -42.809337, 147.352916,HOBC,,0,,0
7016003,7016003,"Linden Rd opp Linden Park",, -42.808429, 147.355084,HOBC,,0,,0
7016004,7016004,"Sycamore Rd after Spinifex Rd",, -42.809720, 147.353592,HOBC,,0,,1
7016005,7016005,"Sycamore Rd before Sugarloaf Rd",, -42.809824, 147.352045,HOBC,,0,,0
7016006,7016006,"Sycamore Rd after Sugarloaf Rd",, -42.809564, 147.351513,HOBC,,0,,0
7016007,7016007,"East Derwent Hwy opp Piper Rd",, -42.818701, 147.342711,HOBC,,0,,0
7016008,7016008,"Risdon Prison Complex, East Derwent Hwy",, -42.813583, 147.337917,HOBC,,0,,0
7016009,7016009,"Sugarloaf Rd opp Duke Park",, -42.812815, 147.351384,HOBC,,0,,0
7016010,7016010,"Duke Park, Sugarloaf Rd",, -42.812570, 147.351201,HOBC,,0,,0
7016011,7016011,"Gardenia Rd opp Heather Rd",, -42.813877, 147.353999,HOBC,,0,,0
7016012,7016012,"Gardenia Rd before Heather Rd",, -42.813626, 147.353378,HOBC,,0,,0
7016013,7016013,"Gardenia Rd opp Marlock St",, -42.813868, 147.356599,HOBC,,0,,0
7016014,7016014,"Gardenia Rd at Marlock St",, -42.814100, 147.357403,HOBC,,0,,0
7016015,7016015,"Gardenia Rd opp Sycamore Rd",, -42.814413, 147.359898,HOBC,,0,,0
7016016,7016016,"Gardenia Rd before Sycamore Rd",, -42.814225, 147.359766,HOBC,,0,,0
7016017,7016017,"Kerria Rd opp Holly Rd",, -42.810118, 147.347677,HOBC,,0,,0
7016018,7016018,"Holly Rd before Kerria Rd",, -42.810578, 147.347459,HOBC,,0,,0
7016019,7016019,"Lantana Rd after Kerria Rd",, -42.811894, 147.348954,HOBC,,0,,0
7016020,7016020,"Lantana Rd after Holly Rd",, -42.811639, 147.348582,HOBC,,0,,0
7016021,7016021,"Sycamore Rd after Poplar Rd",, -42.812236, 147.360651,HOBC,,0,,0
7016022,7016022,"Sycamore Rd after Banksia Rd",, -42.813123, 147.360643,HOBC,,0,,0
7016023,7016023,"32 Sycamore Rd",, -42.811155, 147.359015,HOBC,,0,,0
7016024,7016024,"Sycamore Rd before Banksia Rd",, -42.811162, 147.359396,HOBC,,0,,0
7016025,7016025,"Sycamore Rd at Spinifex Rd",, -42.810609, 147.358053,HOBC,,0,,0
7016026,7016026,"Sycamore Rd opp Saltbush Rd",, -42.810027, 147.355392,HOBC,,0,,0
7016027,7016027,"Linden Rd after Spinifex Rd",, -42.808707, 147.354483,HOBC,,0,,0
7017001,7017001,"East Derwent Hwy before Direction Dr",, -42.811573, 147.306956,HOBB,,0,,0
7017002,7017002,"East Derwent Hwy opp Direction Dr",, -42.812397, 147.308032,HOBB,,0,,0
7017003,7017003,"East Derwent Hwy opp Riviera Dr",, -42.762657, 147.269067,HOBB,,0,,0
7017004,7017004,"East Derwent Hwy after Stanfield Dr",, -42.758910, 147.267906,HOBB,,0,,0
7017005,7017005,"Fouche Av opp Cloak Oval",, -42.778141, 147.269390,HOBB,,0,,0
7017006,7017006,"Fouche Av after Calm Pl",, -42.779244, 147.272889,HOBB,,0,,0
7017007,7017007,"Fouche Av opp Eaves Ct",, -42.779935, 147.276030,HOBB,,0,,0
7017008,7017008,"Fouche Av at Calm Pl",, -42.779231, 147.272496,HOBB,,0,,0
7017009,7017009,"Fouche Av opp Ravensbourne Pl",, -42.780316, 147.275176,HOBB,,0,,0
7017010,7017010,"East Derwent Hwy before Saundersons Rd",, -42.818268, 147.321957,HOBC,,0,,0
7017011,7017011,"opp 853 East Derwent Hwy",, -42.816431, 147.324829,HOBC,,0,,0
7017012,7017012,"East Derwent Hwy after Saundersons Rd",, -42.818083, 147.322300,HOBC,,0,,0
7017013,7017013,"East Derwent Hwy opp Compton Rd",, -42.766689, 147.270175,HOBB,,0,,0
7017014,7017014,"853 East Derwent Hwy",, -42.816283, 147.325033,HOBC,,0,,0
7017015,7017015,"East Derwent Hwy before Bowen Bridge",, -42.815599, 147.317393,HOBC,,0,,0
7017016,7017016,"East Derwent Hwy after Cassidys Rd",, -42.783180, 147.287306,HOBB,,0,,0
7017017,7017017,"East Derwent Hwy after Old Beach Rd",, -42.770299, 147.269259,HOBB,,0,,0
7017018,7017018,"East Derwent Hwy at Stanfield Dr",, -42.757979, 147.267574,HOBB,,0,,0
7017019,7017019,"East Derwent Hwy after Riviera Dr",, -42.762970, 147.269470,HOBB,,0,,0
7017020,7017020,"East Derwent Hwy after Clives Av",, -42.778152, 147.277829,HOBB,,0,,0
7017021,7017021,"Jetty Rd at Morrisby Rd",, -42.773767, 147.266183,HOBB,,0,,0
7017022,7017022,"Jetty Rd opp Morrisby Rd",, -42.773195, 147.266585,HOBB,,0,,0
7017023,7017023,"55 Otago Bay Rd",, -42.808872, 147.295568,HOBB,,0,,0
7017024,7017024,"58 Otago Bay Rd",, -42.808858, 147.296183,HOBB,,0,,0
7017025,7017025,"Otago Bay Rd after Restdown Dr",, -42.799325, 147.289598,HOBB,,0,,0
7017026,7017026,"Cloak Oval, Jetty Rd",, -42.777788, 147.269214,HOBB,,0,,0
7017027,7017027,"Otago Bay Rd opp Conrad Dr",, -42.809966, 147.299730,HOBB,,0,,0
7017028,7017028,"Otago Bay Rd after Conrad Dr",, -42.809961, 147.301087,HOBB,,0,,0
7017029,7017029,"Otago Bay Rd before Restdown Dr",, -42.799319, 147.289487,HOBB,,0,,0
7017030,7017030,"Otago Bay Rd at Lagoon Rd",, -42.806534, 147.293798,HOBB,,0,,0
7017031,7017031,"Otago Bay Rd at Penenjou Rd",, -42.801716, 147.291799,HOBB,,0,,0
7017032,7017032,"Otago Bay Rd at Derwentlaken Rd",, -42.806250, 147.293376,HOBB,,0,,0
7017033,7017033,"Otago Bay Rd before Penenjou Dr",, -42.801262, 147.291895,HOBB,,0,,0
7017034,7017034,"Jetty Rd at Sun Valley Dr",, -42.777633, 147.265854,HOBB,,0,,0
7017035,7017035,"Jetty Rd opp Sun Valley Dr",, -42.777499, 147.265812,HOBB,,0,,0
7017036,7017036,"East Derwent Hwy opp Risdon Prison Complex",, -42.813263, 147.336865,HOBC,,0,,0
7017037,7017037,"Grasstree Hill Rd opp Risdon Brook Dam",, -42.811241, 147.336105,HOBC,,0,,0
7017038,7017038,"Grasstree Hill Rd after Kerria Rd",, -42.808096, 147.344810,HOBC,,0,,0
7017039,7017039,"Grasstree Hill Rd opp Kerria Rd",, -42.807846, 147.345194,HOBC,,0,,0
7017040,7017040,"Risdon Brook Dam, Grasstree Hill Rd",, -42.811207, 147.335601,HOBC,,0,,0
7017041,7017041,"East Derwent Hwy opp Old Beach Rd",, -42.769635, 147.269219,HOBB,,0,,0
7017042,7017042,"East Derwent Hwy before Cassidys Rd",, -42.783782, 147.287404,HOBB,,0,,0
7017043,7017043,"East Derwent Hwy after Compton Rd",, -42.766511, 147.269939,HOBB,,0,,0
7017044,7017044,"East Derwent Hwy before Clives Av",, -42.778456, 147.277938,HOBB,,0,,0
7018001,7018001,"Cambridge Rd opp Paige Ct",, -42.863177, 147.377777,HOBC,,0,,0
7018002,7018002,"Cambridge Rd before Edgeworth St",, -42.861773, 147.379172,HOBC,,0,,0
7018003,7018003,"Cambridge Rd opp Warrane Primary School",, -42.859869, 147.382363,HOBC,,0,,0
7018004,7018004,"Rosny Park Interchange, Bligh St, Stop C",, -42.865717, 147.369414,HOBC,,0,place_intros,0
7018005,7018005,"Cambridge Rd before Banks St",, -42.858447, 147.388191,HOBC,,0,,0
7018006,7018006,"Cambridge Rd before Electra Pl",, -42.857623, 147.390726,HOBC,,0,,0
7018007,7018007,"Rosny Hill Rd opp Rosny College",, -42.866713, 147.365749,HOBC,,0,,0
7018008,7018008,"Tasman Hwy opp Rose Bay High School",, -42.862979, 147.359363,HOBC,,0,,0
7018009,7018009,"Cambridge Rd after Paige Ct",, -42.863404, 147.377627,HOBC,,0,,0
7018010,7018010,"Cambridge Rd before Binalong Rd",, -42.861809, 147.379258,HOBC,,0,,0
7018011,7018011,"Rosny Park Interchange, Bligh St, Stop E",, -42.866141, 147.369454,HOBC,,0,place_intros,0
7018012,7018012,"Cambridge Rd after Banks St",, -42.858721, 147.388472,HOBC,,0,,0
7018013,7018013,"Cambridge Rd at Electra Pl",, -42.857099, 147.392441,HOBC,,0,,0
7018014,7018014,"Rosny College, Rosny Hill Rd",, -42.866718, 147.365333,HOBC,,0,,0
7018015,7018015,"Warrane Primary School, Cambridge Rd",, -42.860225, 147.381660,HOBC,,0,,0
7018016,7018016,"Gordons Hill Rd after Cambridge Rd",, -42.866005, 147.372510,HOBC,,0,,0
7018017,7018017,"Gordons Hill Rd before Cambridge Rd",, -42.865955, 147.372714,HOBC,,0,,0
7018018,7018018,"Merindah St before Norma St",, -42.882476, 147.410970,HOBD,,0,,0
7018019,7018019,"Nankoor Cr after Wentworth St",, -42.873070, 147.389130,HOBC,,0,,0
7018020,7018020,"Waverley St before Waverley Ct",, -42.871759, 147.385693,HOBC,,0,,0
7018021,7018021,"TasTAFE, Early Childhood and Education",, -42.849890, 147.381633,HOBC,,0,place_schcla,0
7018022,7018022,"TasTAFE, Student Residence",, -42.851621, 147.379536,HOBC,,0,,0
7018023,7018023,"TasTAFE, opp Cafeteria",, -42.850728, 147.380622,HOBC,,0,place_schcla,0
7018024,7018024,"TasTAFE, opp Nursing Home",, -42.853138, 147.379980,HOBC,,0,place_schcla,0
7018025,7018025,"TasTAFE, Nursing Home",, -42.853025, 147.380225,HOBC,,0,place_schcla,0
7018027,7018027,"Anstey St after Ninabah St",, -42.872180, 147.398617,HOBC,,0,,0
7018028,7018028,"Church St opp Bellerive Oval Southern Gate",, -42.876728, 147.375060,HOBC,,0,,0
7018029,7018029,"Cambridge Rd before Currajong St",, -42.856003, 147.399650,HOBC,,0,,0
7018030,7018030,"Tilanbi St after Phoenix St",, -42.874659, 147.401977,HOBC,,0,,0
7018031,7018031,"370 Cambridge Rd",, -42.855995, 147.400488,HOBC,,0,,0
7018032,7018032,"Merindah St after Norma St",, -42.882586, 147.411082,HOBD,,0,,0
7018033,7018033,"Anstey St before Alford St",, -42.871451, 147.394091,HOBC,,0,,0
7018034,7018034,"Clarence Aquatic Centre, Riawena Rd",, -42.864704, 147.360897,HOBC,,0,,0
7018035,7018035,"Victoria Esp before King St",, -42.874992, 147.364497,HOBC,,0,,0
7018036,7018036,"Bayfield St opp Veronica St",, -42.867440, 147.373861,HOBC,,0,,0
7018037,7018037,"Shoreline Dr after Norma St",, -42.877734, 147.409220,HOBD,,0,,0
7018038,7018038,"Bayfield St after Watercart Ct",, -42.868360, 147.375235,HOBC,,0,,0
7018039,7018039,"Nankoor Cr opp Anstey St",, -42.871432, 147.392413,HOBC,,0,,0
7018040,7018040,"Cambridge Rd before Joshua St",, -42.857590, 147.411220,HOBC,,0,,0
7018041,7018041,"Yarram St opp Banjorrah St",, -42.876459, 147.403236,HOBC,,0,,0
7018042,7018042,"Merindah St before Myoora St",, -42.884357, 147.412954,HOBD,,0,,0
7018043,7018043,"Merindah St after Myoora St",, -42.884090, 147.412792,HOBD,,0,,0
7018044,7018044,"King St at Petchey St",, -42.876619, 147.365295,HOBC,,0,,0
7018045,7018045,"Yarram St before Banjorrah St",, -42.876665, 147.402984,HOBC,,0,,0
7018046,7018046,"Scott St opp Park St",, -42.876643, 147.369454,HOBC,,0,,0
7018047,7018047,"Anstey St before Ninabah St",, -42.872055, 147.398655,HOBC,,0,,0
7018048,7018048,"Tilanbi St before Ninabah St",, -42.872581, 147.399649,HOBC,,0,,0
7018049,7018049,"Beach St after Douglas St",, -42.875732, 147.375976,HOBC,,0,,0
7018050,7018050,"Church St opp Bellerive Oval Northern Gate",, -42.876178, 147.373379,HOBC,,0,,0
7018051,7018051,"Riawena Rd after Montagu Bay Rd",, -42.866115, 147.362422,HOBC,,0,,0
7018052,7018052,"Norma St at Carmont Ct",, -42.880148, 147.410273,HOBD,,0,,0
7018053,7018053,"opp 25 Nankoor Cr",, -42.872763, 147.391959,HOBC,,0,,0
7018054,7018054,"Bayfield St before Cambridge Rd",, -42.867390, 147.373052,HOBC,,0,,0
7018055,7018055,"Cambridge Rd after Joshua St",, -42.857444, 147.411201,HOBC,,0,,0
7018056,7018056,"Riawena Rd before Rosny Hill Rd",, -42.865973, 147.364258,HOBC,,0,,0
7018057,7018057,"Waverley St after High St",, -42.871450, 147.381002,HOBC,,0,,0
7018058,7018058,"Riawena Rd after Rosny Hill Rd",, -42.866135, 147.364259,HOBC,,0,,0
7018060,7018060,"Rosny Esp opp Ninda St",, -42.870262, 147.353586,HOBC,,0,,0
7018061,7018061,"Rosny Hill Rd after Montagu Bay Rd",, -42.864260, 147.363993,HOBC,,0,,0
7018062,7018062,"Rosny Park Interchange, Bligh St, Stop A",, -42.865295, 147.369600,HOBC,,0,place_intros,0
7018063,7018063,"Rosny Park Interchange, Bligh St, Stop D",, -42.866017, 147.369256,HOBC,,0,place_intros,0
7018064,7018064,"Rosny Park Interchange, Bligh St, Stop F",, -42.865854, 147.369613,HOBC,,0,place_intros,0
7018065,7018065,"Rosny Park Interchange, Bligh St, Stop G",, -42.865483, 147.369843,HOBC,,0,place_intros,0
7018066,7018066,"Shoreline Plaza, Wicks Pl, Stop A",, -42.879339, 147.406184,HOBCD,,0,,0
7018067,7018067,"Shoreline Plaza, Wicks Pl, Stop B",, -42.879523, 147.406393,HOBCD,,0,,0
7018068,7018068,"Shoreline Plaza, Clarence St",, -42.880584, 147.406467,HOBD,,0,,0
7018069,7018069,"Shoreline Dr before Norma St",, -42.877493, 147.409174,HOBD,,0,,0
7018070,7018070,"Bayfield St opp Watercart Ct",, -42.868680, 147.375965,HOBC,,0,,0
7018071,7018071,"Riawena Rd at Conara Rd",, -42.863384, 147.355556,HOBC,,0,,0
7018072,7018072,"Waverley St after Waverley Ct",, -42.871950, 147.386249,HOBC,,0,,0
7018073,7018073,"Tilanbi St after Ninabah St",, -42.872859, 147.400120,HOBC,,0,,0
7018074,7018074,"Church St after Scott St",, -42.875503, 147.371113,HOBC,,0,,0
7018075,7018075,"King St at Britannia Pl",, -42.876985, 147.365528,HOBC,,0,,0
7018076,7018076,"Bellerive Pier, Victoria Esp",, -42.874713, 147.364703,HOBC,,0,,0
7018077,7018077,"Tilanbi St at Phoenix St",, -42.874387, 147.401417,HOBC,,0,,0
7018078,7018078,"Yarram St before Allumba St",, -42.878136, 147.402861,HOBC,,0,,0
7018079,7018079,"Cambridge Rd after Ingola St",, -42.857501, 147.405410,HOBC,,0,,0
7018080,7018080,"Balaka St before Rosny Esp",, -42.871670, 147.352945,HOBC,,0,,0
7018081,7018081,"Bilinga St after Quarry Rd",, -42.864566, 147.377863,HOBC,,0,,0
7018084,7018084,"Bilinga St before Quarry Rd",, -42.864641, 147.378477,HOBC,,0,,0
7018085,7018085,"15 Balaka St",, -42.873116, 147.354002,HOBC,,0,,0
7018086,7018086,"Bellerive Quay, Cambridge Rd before Queen St",, -42.874956, 147.367019,HOBC,,0,,0
7018087,7018087,"Southern Support School, Clarence St",, -42.879061, 147.401661,HOBC,,0,,1
7018088,7018088,"Bilinga St after Barana St",, -42.865553, 147.381508,HOBC,,0,,0
7018089,7018089,"Bellerive Quay, Cambridge Rd after Queen St",, -42.874821, 147.366967,HOBC,,0,,0
7018090,7018090,"Bilinga St after Akora St",, -42.865344, 147.381483,HOBC,,0,,0
7018091,7018091,"Waverley St opp Kurrewa Ct",, -42.870701, 147.377006,HOBC,,0,,0
7018092,7018092,"Barana St after Binalong Rd",, -42.863526, 147.383210,HOBC,,0,,0
7018093,7018093,"Balaka St after Rosny Esp",, -42.873340, 147.355713,HOBC,,0,,0
7018094,7018094,"Barana St before Binalong Rd",, -42.863499, 147.383003,HOBC,,0,,0
7018095,7018095,"Carbeen St after Binalong Rd",, -42.862668, 147.383873,HOBC,,0,,0
7018096,7018096,"Howrah Primary School, Howrah Rd",, -42.881163, 147.405337,HOBD,,0,,1
7018097,7018097,"Norma St opp Yani Ct",, -42.880591, 147.410533,HOBD,,0,,0
7018098,7018098,"King St before Dillon St",, -42.878175, 147.367072,HOBC,,0,,0
7018099,7018099,"King St after Dillon St",, -42.878141, 147.367238,HOBC,,0,,0
7018100,7018100,"Howrah Rd opp Howrah Primary School",, -42.881029, 147.405590,HOBD,,0,,1
7018101,7018101,"Carbeen St before Binalong Rd",, -42.862697, 147.384028,HOBC,,0,,0
7018102,7018102,"Bligh St after Shackleton St",, -42.855737, 147.389738,HOBC,,0,,0
7018103,7018103,"Bligh St before Shackleton St",, -42.855505, 147.389060,HOBC,,0,,0
7018104,7018104,"Riawena Rd at Loinah Rd",, -42.864181, 147.357990,HOBC,,0,,0
7018107,7018107,"Shackleton St before Cambridge Rd",, -42.856906, 147.391493,HOBC,,0,,0
7018108,7018108,"Montagu Bay Rd after Riawena Rd",, -42.865411, 147.362848,HOBC,,0,,0
7018109,7018109,"Clarence St after High St",, -42.875441, 147.377965,HOBC,,0,,1
7018110,7018110,"Clarence St before High St",, -42.875253, 147.378137,HOBC,,0,,0
7018111,7018111,"South Street Reserve, Clarence St",, -42.875757, 147.381587,HOBC,,0,,0
7018112,7018112,"Clarence St opp South Street Reserve",, -42.875552, 147.381621,HOBC,,0,,0
7018113,7018113,"Clarence High School, Clarence St",, -42.876235, 147.387447,HOBC,,0,,0
7018114,7018114,"Clarence St opp Clarence High School",, -42.875969, 147.387047,HOBC,,0,,0
7018115,7018115,"Rosny Esp before Conara Rd",, -42.864283, 147.355834,HOBC,,0,,0
7018116,7018116,"Clarence St before Silwood Av",, -42.876979, 147.391617,HOBC,,0,,0
7018117,7018117,"Clarence St after Silwood Av",, -42.876757, 147.391520,HOBC,,0,,0
7018118,7018118,"Rosny Esp opp Kellatie Rd",, -42.866114, 147.355145,HOBC,,0,,0
7018119,7018119,"Wentworth Park Sportgrounds, Clarence St",, -42.877839, 147.395952,HOBC,,0,,1
7018120,7018120,"Clarence St opp Wentworth Park Sportgrounds",, -42.877388, 147.394933,HOBC,,0,,1
7018121,7018121,"Bastick St before Kellatie Rd",, -42.872477, 147.358222,HOBC,,0,,0
7018122,7018122,"South Arm Hwy after Oceana Dr",, -42.885698, 147.412493,HOBD,,0,,0
7018123,7018123,"Rokeby Rd after Merindah St",, -42.885763, 147.414153,HOBD,,0,,0
7018124,7018124,"Scott St after Queen St",, -42.877429, 147.368854,HOBC,,0,,0
7018125,7018125,"Carbeen St after Dawson Ct",, -42.861662, 147.384575,HOBC,,0,,0
7018126,7018126,"Carbeen St before Dawson Ct",, -42.861459, 147.384603,HOBC,,0,,0
7018127,7018127,"Mortyn Place Park, Howrah Rd",, -42.883631, 147.405523,HOBD,,0,,0
7018128,7018128,"Howrah Beach, Howrah Rd",, -42.883957, 147.405325,HOBD,,0,,0
7018129,7018129,"Oceana Dr before Coventry Rise",, -42.897870, 147.416110,HOBD,,0,,0
7018130,7018130,"Oceana Dr after Coventry Rise",, -42.897568, 147.415749,HOBD,,0,,0
7018131,7018131,"Tranmere Rd after Somerset St",, -42.903114, 147.415817,HOBD,,0,,0
7018132,7018132,"Tranmere Rd before Somerset St",, -42.903127, 147.416158,HOBD,,0,,0
7018133,7018133,"Oceana Dr before Somerset St",, -42.900872, 147.418455,HOBD,,0,,0
7018134,7018134,"Oceana Dr after Somerset St",, -42.900709, 147.417989,HOBD,,0,,0
7018135,7018135,"Tranmere Rd opp Eliza Way",, -42.905450, 147.417901,HOBD,,0,,0
7018136,7018136,"Tranmere Rd before Eliza Way",, -42.905232, 147.418071,HOBD,,0,,0
7018137,7018137,"Cambridge Rd after Currajong St",, -42.856089, 147.396080,HOBC,,0,,0
7018138,7018138,"Cambridge Rd opp Currajong St",, -42.855926, 147.396249,HOBC,,0,,0
7018139,7018139,"Oceana Dr at Eucalypt Rise",, -42.903149, 147.420337,HOBD,,0,,0
7018140,7018140,"Oceana Dr opp Eucalypt Rise",, -42.902643, 147.419610,HOBD,,0,,0
7018141,7018141,"Tranmere Rd before Arlunya St",, -42.908164, 147.418192,HOBD,,0,,0
7018142,7018142,"Oceana Dr after Jacinta Way",, -42.906155, 147.421082,HOBD,,0,,0
7018143,7018143,"Currajong St before Balcumbi St",, -42.856794, 147.397309,HOBC,,0,,0
7018144,7018144,"Tranmere Rd after Arlunya St",, -42.908463, 147.417754,HOBD,,0,,0
7018145,7018145,"Bastick St after Seabird Lane",, -42.871467, 147.361629,HOBC,,0,,0
7018146,7018146,"Rokeby Rd at Ploughman Rd",, -42.888362, 147.423433,HOBD,,0,,0
7018147,7018147,"Rosny College, Bastick St",, -42.869503, 147.363371,HOBC,,0,,0
7018148,7018148,"Little Howrah Beach, Howrah Rd",, -42.887410, 147.405464,HOBD,,0,,0
7018149,7018149,"Carbeen St before Derinya St",, -42.861090, 147.386931,HOBC,,0,,0
7018150,7018150,"Carbeen St after Derinya St",, -42.861250, 147.386878,HOBC,,0,,0
7018151,7018151,"Howrah Rd opp Little Howrah Beach",, -42.887718, 147.405788,HOBD,,0,,0
7018152,7018152,"Rokeby Rd opp Glebe Hill Village",, -42.889057, 147.427982,HOBD,,0,,0
7018153,7018153,"Tranmere Rd before Corinth St",, -42.890303, 147.408614,HOBD,,0,,0
7018154,7018154,"Tranmere Rd at Corinth St",, -42.890938, 147.408859,HOBD,,0,,0
7018155,7018155,"Oceana Dr opp Holland Ct",, -42.886428, 147.412865,HOBD,,0,,0
7018156,7018156,"Binalong Rd opp Derinya St",, -42.862628, 147.387658,HOBC,,0,,0
7018157,7018157,"Binalong Rd after Derinya St",, -42.862508, 147.387959,HOBC,,0,,0
7018158,7018158,"Oceana Dr at Holland Ct",, -42.886329, 147.413134,HOBD,,0,,0
7018159,7018159,"Tranmere Rd opp Cleve Ct",, -42.891943, 147.409848,HOBD,,0,,0
7018160,7018160,"Oceana Dr opp Eyrie Cl",, -42.888450, 147.411420,HOBD,,0,,0
7018161,7018161,"Oceana Dr at Eyrie Cl",, -42.888912, 147.411629,HOBD,,0,,0
7018162,7018162,"Tranmere Rd before Cleve Ct",, -42.892585, 147.410151,HOBD,,0,,0
7018163,7018163,"Binalong Rd after Culgoa St",, -42.862790, 147.390186,HOBC,,0,,0
7018164,7018164,"Binalong Rd before Culgoa St",, -42.862640, 147.390045,HOBC,,0,,0
7018165,7018165,"Culgoa St after Darri St",, -42.861172, 147.388792,HOBC,,0,,0
7018166,7018166,"Culgoa St before Darri St",, -42.861538, 147.389106,HOBC,,0,,0
7018167,7018167,"Oceana Dr after Caroda Ct",, -42.891827, 147.413145,HOBD,,0,,0
7018168,7018168,"Oceana Dr after Balia Rd",, -42.892081, 147.413024,HOBD,,0,,0
7018169,7018169,"Tranmere Rd after Dundulla St",, -42.894184, 147.411010,HOBD,,0,,0
7018170,7018170,"Tranmere Rd at Dundulla St",, -42.894505, 147.411323,HOBD,,0,,0
7018171,7018171,"Darri St after Derinya St",, -42.859247, 147.387575,HOBC,,0,,0
7018172,7018172,"Oceana Dr after Carella Neighbourhood Park",, -42.894967, 147.414932,HOBD,,0,,0
7018173,7018173,"Tranmere Rd after Anulka St",, -42.897357, 147.412242,HOBD,,0,,0
7018174,7018174,"Carella Neighbourhood Park, Oceana Dr",, -42.893946, 147.414092,HOBD,,0,,0
7018175,7018175,"Darri St at Derinya St",, -42.859400, 147.387436,HOBC,,0,,0
7018176,7018176,"Tranmere Rd opp Anulka St",, -42.896945, 147.411713,HOBD,,0,,0
7018177,7018177,"Tranmere Rd before Glamorgan St",, -42.900016, 147.413627,HOBD,,0,,0
7018178,7018178,"Tranmere Rd after Glamorgan St",, -42.899708, 147.413689,HOBD,,0,,0
7018179,7018179,"Oceana Dr after Anchorage Ct",, -42.924310, 147.413998,HOBD,,0,,0
7018180,7018180,"Oceana Dr at Starboard Rd",, -42.927978, 147.413043,HOBD,,0,,1
7018181,7018181,"Tranmere Rd at Cohuna St",, -42.911565, 147.417464,HOBD,,0,,0
7018182,7018182,"Currajong St opp MacKillop College",, -42.856775, 147.400034,HOBC,,0,,0
7018183,7018183,"MacKillop College, Currajong St",, -42.857044, 147.400340,HOBC,,0,,0
7018184,7018184,"Oceana Dr after Anatolia Way",, -42.909318, 147.420817,HOBD,,0,,0
7018185,7018185,"Oceana Dr before Anatolia Way",, -42.909879, 147.421327,HOBD,,0,,0
7018186,7018186,"Tranmere Rd opp Cohuna St",, -42.911940, 147.416996,HOBD,,0,,0
7018187,7018187,"Currajong Park, Currajong St",, -42.858292, 147.403086,HOBC,,0,,0
7018188,7018188,"284 Tranmere Rd",, -42.913789, 147.416080,HOBD,,0,,0
7018189,7018189,"Currajong St opp Currajong Park",, -42.858142, 147.403245,HOBC,,0,,0
7018190,7018190,"Oceana Dr opp Vitesse Ct",, -42.912174, 147.421460,HOBD,,0,,0
7018191,7018191,"Oceana Dr after Vitesse Ct",, -42.912819, 147.421533,HOBD,,0,,0
7018192,7018192,"opp 284 Tranmere Rd",, -42.913748, 147.415872,HOBD,,0,,0
7018193,7018193,"306 Tranmere Rd",, -42.915482, 147.413831,HOBD,,0,,0
7018194,7018194,"Currajong St after Nilpena St",, -42.858460, 147.404862,HOBC,,0,,0
7018195,7018195,"Currajong St before Nilpena St",, -42.858307, 147.404911,HOBC,,0,,0
7018196,7018196,"Oceana Dr after Carella St",, -42.915734, 147.418099,HOBD,,0,,0
7018197,7018197,"Tranmere Rd after Pindos Dr",, -42.916133, 147.412493,HOBD,,0,,0
7018198,7018198,"Oceana Dr before Carella St",, -42.915983, 147.418063,HOBD,,0,,0
7018199,7018199,"Currajong St at Nilpena St",, -42.858413, 147.407821,HOBC,,0,,0
7018200,7018200,"Oceana Dr before Tranmere Rd",, -42.918756, 147.414247,HOBD,,0,,0
7018201,7018201,"Oceana Dr after Tranmere Rd",, -42.918660, 147.414464,HOBD,,0,,0
7018202,7018202,"Oceana Dr before Spinnaker Cr",, -42.920825, 147.414037,HOBD,,0,,0
7018203,7018203,"Bligh St opp Warrior Park",, -42.856991, 147.381724,HOBC,,0,,0
7018204,7018204,"Warrior Park, Bligh St",, -42.857214, 147.380629,HOBC,,0,,0
7018205,7018205,"Cambridge Rd opp Milford Lane",, -42.873473, 147.368816,HOBC,,0,,0
7018206,7018206,"Bligh St after La Perouse St",, -42.855584, 147.385062,HOBC,,0,,0
7018207,7018207,"Bligh St at La Perouse St",, -42.856062, 147.384195,HOBC,,0,,0
7018208,7018208,"Clarence St opp Douglas St",, -42.874929, 147.373369,HOBC,,0,,0
7018209,7018209,"Clarence St after Douglas St",, -42.875044, 147.372345,HOBC,,0,,1
7018210,7018210,"Rosny Library, Bligh St",, -42.863806, 147.370836,HOBC,,0,,0
7018211,7018211,"Bligh St at Gordons Hill Rd",, -42.863179, 147.372138,HOBC,,0,,0
7018212,7018212,"Bligh St after Cumberland St",, -42.861858, 147.374299,HOBC,,0,,0
7018213,7018213,"Cambridge Rd before Ormond St",, -42.869250, 147.371440,HOBC,,0,,0
7018214,7018214,"Cambridge Rd opp Corpus Christi Catholic Church",, -42.870395, 147.370561,HOBC,,0,,0
7018215,7018215,"Edgeworth Sports Ground, Bligh St",, -42.860061, 147.376210,HOBC,,0,,0
